"LAT","LON","ship_type","SHIPNAME","DATETIME","ship_type_and_name","DIFFERENCE","ID","DISTANCE","TIME"
59.86867,30.22017,"Cargo",". PRINCE OF WAVES",2016-12-14 11:01:04,"Cargo . PRINCE OF WAVES",120,2363,NA,NA
59.86983,30.21433,"Cargo",". PRINCE OF WAVES",2016-12-14 10:59:05,"Cargo . PRINCE OF WAVES",118,2364,350.956493889483,119
59.91917,30.01335,"Cargo","AALDERDIJK",2016-12-20 08:53:04,"Cargo AALDERDIJK",119,2391,NA,NA
59.91565,30.0305,"Cargo","AALDERDIJK",2016-12-20 08:51:04,"Cargo AALDERDIJK",119,2392,1034.0645789009,120
55.71969,20.8096,"Cargo","ADAMAS",2016-12-14 22:57:06,"Cargo ADAMAS",NA,3649,NA,NA
55.72534,20.85354,"Cargo","ADAMAS",2016-12-14 22:55:06,"Cargo ADAMAS",120,3650,2825.71735188401,120
59.91283,30.04498,"Cargo","ADASTRA",2016-12-20 10:25:03,"Cargo ADASTRA",120,3910,NA,NA
59.90572,30.08003,"Cargo","ADASTRA",2016-12-20 10:17:04,"Cargo ADASTRA",479,3911,2110.27201085269,479
55.7167,21.10772,"Cargo","ADELE",2016-12-15 05:25:07,"Cargo ADELE",119,7963,NA,NA
55.72617,21.08768,"Cargo","ADELE",2016-12-15 05:19:06,"Cargo ADELE",361,7964,1640.11914332526,361
57.6565,11.75017,"Cargo","ADELINA D",2016-12-15 16:05:06,"Cargo ADELINA D",120,8010,NA,NA
57.6635,11.77983,"Cargo","ADELINA D",2016-12-15 16:03:05,"Cargo ADELINA D",121,8011,1930.49406858018,121
55.73155,20.86157,"Cargo","AFRICAN CENDANA",2016-12-17 08:05:06,"Cargo AFRICAN CENDANA",120,10515,NA,NA
55.73175,20.84616,"Cargo","AFRICAN CENDANA",2016-12-17 08:03:06,"Cargo AFRICAN CENDANA",120,10516,966.164973735507,120
55.73736,20.80092,"Cargo","AFRICAN GROUSE",2016-12-17 02:35:06,"Cargo AFRICAN GROUSE",120,11686,NA,NA
55.11497,19.95943,"Cargo","AFRICAN GROUSE",2016-12-16 19:15:03,"Cargo AFRICAN GROUSE",26403,11687,87325.4411972053,26403
54.68866,20.21182,"Cargo","AFRICAN MAGNOLIA",2016-12-17 13:39:03,"Cargo AFRICAN MAGNOLIA",240,15820,NA,NA
54.68829,20.21381,"Cargo","AFRICAN MAGNOLIA",2016-12-17 13:31:02,"Cargo AFRICAN MAGNOLIA",481,15821,134.508117262268,481
54.36469,18.66545,"Cargo","AGNETHE ARCTICA",2016-12-18 10:35:02,"Cargo AGNETHE ARCTICA",120,19949,NA,NA
54.36948,18.665,"Cargo","AGNETHE ARCTICA",2016-12-18 10:31:01,"Cargo AGNETHE ARCTICA",241,19950,534.018414156479,241
55.71589,21.10918,"Cargo","AGOT",2016-12-20 06:39:06,"Cargo AGOT",120,23385,NA,NA
55.7237,21.09678,"Cargo","AGOT",2016-12-20 06:33:06,"Cargo AGOT",360,23386,1166.33356462175,360
54.66873,19.80998,"Cargo","AKACIA",2016-12-16 11:41:02,"Cargo AKACIA",121,23498,NA,NA
54.46332,18.9992,"Cargo","AKACIA",2016-12-16 08:11:02,"Cargo AKACIA",12600,23499,57104.5007866035,12600
54.65045,19.86151,"Cargo","AKERDIJK",2016-12-20 11:07:04,"Cargo AKERDIJK",238,24173,NA,NA
54.65897,19.83891,"Cargo","AKERDIJK",2016-12-20 11:01:03,"Cargo AKERDIJK",361,24174,1737.16911465824,361
55.8785,20.8175,"Cargo","ALANA",2016-12-19 10:31:06,"Cargo ALANA",120,24181,NA,NA
55.86231,20.83628,"Cargo","ALANA",2016-12-19 10:29:05,"Cargo ALANA",121,24182,2150.34253114589,121
54.5491,18.98915,"Cargo","ALANA EVITA",2016-12-17 19:45:01,"Cargo ALANA EVITA",120,26607,NA,NA
54.66463,19.82511,"Cargo","ALANA EVITA",2016-12-17 16:43:03,"Cargo ALANA EVITA",10918,26608,55410.7859551471,10918
54.66798,18.93716,"Cargo","ALEXANDER B",2016-12-14 11:13:01,"Cargo ALEXANDER B",121,27926,NA,NA
54.68479,18.95132,"Cargo","ALEXANDER B",2016-12-14 11:11:01,"Cargo ALEXANDER B",120,27927,2081.42673970629,120
59.91301,30.04308,"Cargo","ALLEGRA",2016-12-16 21:43:06,"Cargo ALLEGRA",119,27949,NA,NA
59.90941,30.06115,"Cargo","ALLEGRA",2016-12-16 21:41:07,"Cargo ALLEGRA",118,27950,1085.17852610502,119
59.91543,30.03198,"Cargo","ALMENDRO",2016-12-20 08:57:04,"Cargo ALMENDRO",119,29737,NA,NA
59.91223,30.0483,"Cargo","ALMENDRO",2016-12-20 08:55:04,"Cargo ALMENDRO",119,29738,977.920028018804,120
57.60223,11.78932,"Cargo","AMANDA",2016-12-19 06:11:05,"Cargo AMANDA",121,31401,NA,NA
57.99846,11.75718,"Cargo","AMANDA",2016-12-18 15:25:04,"Cargo AMANDA",53161,31402,44149.3043213357,53161
55.70917,21.1208,"Cargo","AMATHUS",2016-12-15 09:39:07,"Cargo AMATHUS",121,32365,NA,NA
55.7091,21.12082,"Cargo","AMATHUS",2016-12-15 09:33:07,"Cargo AMATHUS",360,32366,7.892673790227,360
54.6685,19.80217,"Cargo","AMBAL",2016-12-20 08:55:03,"Cargo AMBAL",119,32406,NA,NA
55.176,19.87267,"Cargo","AMBAL",2016-12-20 02:13:03,"Cargo AMBAL",24120,32407,56674.3781440912,24120
54.63288,19.89483,"Cargo","AMBER SPIRIT",2016-12-19 15:33:03,"Cargo AMBER SPIRIT",120,33121,NA,NA
54.65795,19.84142,"Cargo","AMBER SPIRIT",2016-12-19 15:15:03,"Cargo AMBER SPIRIT",1080,33122,4429.92403631227,1080
54.64067,20.02383,"Cargo","AMELAND",2016-12-18 13:43:03,"Cargo AMELAND",124,34023,NA,NA
54.633,19.89367,"Cargo","AMELAND",2016-12-18 13:17:02,"Cargo AMELAND",1561,34024,8429.16353247522,1561
54.655,19.8496,"Cargo","AMERDIJK",2016-12-13 18:39:03,"Cargo AMERDIJK",119,34032,NA,NA
54.63272,19.89502,"Cargo","AMERDIJK",2016-12-13 18:37:03,"Cargo AMERDIJK",120,34033,3835.55578833081,120
57.93881,11.68675,"Cargo","ANDALUCIA STAR",2016-12-14 22:57:05,"Cargo ANDALUCIA STAR",121,34256,NA,NA
57.9162,11.63816,"Cargo","ANDALUCIA STAR",2016-12-14 22:55:05,"Cargo ANDALUCIA STAR",120,34257,3818.92077926203,120
55.7312,21.01329,"Cargo","ANETTA",2016-12-16 11:15:07,"Cargo ANETTA",119,34862,NA,NA
55.73262,20.98763,"Cargo","ANETTA",2016-12-16 11:13:06,"Cargo ANETTA",121,34863,1616.12330379409,121
54.78513,18.9612,"Cargo","ANGLIA SEAWAYS",2016-12-20 02:05:02,"Cargo ANGLIA SEAWAYS",120,35133,NA,NA
54.79479,18.94468,"Cargo","ANGLIA SEAWAYS",2016-12-20 02:03:01,"Cargo ANGLIA SEAWAYS",121,35134,1510.18230707738,121
55.70835,20.81501,"Cargo","ANGORA",2016-12-15 08:33:07,"Cargo ANGORA",119,38743,NA,NA
55.70655,20.80155,"Cargo","ANGORA",2016-12-15 08:31:06,"Cargo ANGORA",121,38744,867.658220689811,121
57.61167,11.6025,"Cargo","ANINA",2016-12-15 00:51:05,"Cargo ANINA",NA,38745,NA,NA
57.6115,11.634,"Cargo","ANINA",2016-12-15 00:49:05,"Cargo ANINA",120,38746,1878.40756238583,120
57.93012,11.67011,"Cargo","ANJELIERSGRACHT",2016-12-16 10:47:05,"Cargo ANJELIERSGRACHT",120,39228,NA,NA
57.94062,11.68803,"Cargo","ANJELIERSGRACHT",2016-12-16 10:45:05,"Cargo ANJELIERSGRACHT",120,39229,1577.25488444277,120
57.63334,11.69167,"Cargo","ANNAMARIE",2016-12-15 06:41:05,"Cargo ANNAMARIE",120,39722,NA,NA
57.61783,11.6745,"Cargo","ANNAMARIE",2016-12-15 06:39:05,"Cargo ANNAMARIE",120,39723,2007.09903882123,120
54.51431,18.99619,"Cargo","APL MERLION",2016-12-19 19:13:01,"Cargo APL MERLION",121,40186,NA,NA
54.7311,18.99907,"Cargo","APL MERLION",2016-12-19 18:01:02,"Cargo APL MERLION",4319,40187,24133.6662003012,4319
55.61112,20.80787,"Cargo","ARA ROTTERDAM",2016-12-14 19:23:06,"Cargo ARA ROTTERDAM",120,41355,NA,NA
55.00592,19.83046,"Cargo","ARA ROTTERDAM",2016-12-14 17:41:02,"Cargo ARA ROTTERDAM",6124,41356,91506.4336812321,6124
54.51316,18.98008,"Cargo","ARETHOUSA",2016-12-14 10:37:02,"Cargo ARETHOUSA",120,46296,NA,NA
54.52544,18.99381,"Cargo","ARETHOUSA",2016-12-14 10:35:02,"Cargo ARETHOUSA",120,46297,1629.6349024777,120
54.55957,18.5508,"Cargo","ARION",2016-12-17 09:11:07,"Cargo ARION",6600,46729,NA,NA
54.52898,18.55068,"Cargo","ARION",2016-12-17 07:27:07,"Cargo ARION",6240,46730,3405.27203973875,6240
57.61075,11.62227,"Cargo","ARK FORWARDER",2016-12-17 04:57:05,"Cargo ARK FORWARDER",120,47393,NA,NA
57.67988,11.81698,"Cargo","ARK FORWARDER",2016-12-14 02:29:07,"Cargo ARK FORWARDER",268078,47394,13920.1633069232,268078
57.94259,11.69145,"Cargo","ASIAN BREEZE",2016-12-13 14:29:05,"Cargo ASIAN BREEZE",121,47667,NA,NA
57.95189,11.70251,"Cargo","ASIAN BREEZE",2016-12-13 14:27:05,"Cargo ASIAN BREEZE",120,47668,1224.2184372048,120
57.91386,11.62603,"Cargo","ASIAN VISION",2016-12-16 20:33:05,"Cargo ASIAN VISION",119,47719,NA,NA
57.9181,11.60256,"Cargo","ASIAN VISION",2016-12-16 20:31:04,"Cargo ASIAN VISION",121,47720,1465.8211542629,121
54.52776,18.78247,"Cargo","ASKOE",2016-12-14 19:57:07,"Cargo ASKOE",115,48545,NA,NA
54.54969,18.81589,"Cargo","ASKOE",2016-12-14 19:55:01,"Cargo ASKOE",121,48546,3258.53754484997,126
57.655,11.7413,"Cargo","ASPEN",2016-12-16 04:02:20,"Cargo ASPEN",45,48805,NA,NA
57.64979,11.71182,"Cargo","ASPEN",2016-12-16 03:59:06,"Cargo ASPEN",194,48806,1849.19204823902,194
57.6118,11.62322,"Cargo","ASTRORUNNER",2016-12-20 04:39:13,"Cargo ASTRORUNNER",112,48970,NA,NA
57.60032,11.65497,"Cargo","ASTRORUNNER",2016-12-13 18:09:05,"Cargo ASTRORUNNER",556208,48971,2284.40804530965,556208
57.64611,11.70513,"Cargo","ATLANTIC CARTIER",2016-12-19 04:27:05,"Cargo ATLANTIC CARTIER",120,49677,NA,NA
57.63336,11.69312,"Cargo","ATLANTIC CARTIER",2016-12-19 04:25:06,"Cargo ATLANTIC CARTIER",119,49678,1589.51152682797,119
59.90889,30.06385,"Cargo","ATLANTIC NAVIGATORII",2016-12-17 14:37:04,"Cargo ATLANTIC NAVIGATORII",119,51696,NA,NA
59.91239,30.04606,"Cargo","ATLANTIC NAVIGATORII",2016-12-17 14:35:04,"Cargo ATLANTIC NAVIGATORII",119,51697,1066.57129895041,120
59.90658,30.22843,"Cargo","ATLANTIC RUNNER",2016-12-14 15:07:04,"Cargo ATLANTIC RUNNER",120,55848,NA,NA
59.90295,30.22353,"Cargo","ATLANTIC RUNNER",2016-12-14 15:05:05,"Cargo ATLANTIC RUNNER",118,55849,487.955308139916,119
54.62413,18.92408,"Cargo","ATROTOS HERACLES",2016-12-17 07:37:02,"Cargo ATROTOS HERACLES",120,56457,NA,NA
54.61001,18.91085,"Cargo","ATROTOS HERACLES",2016-12-17 07:35:01,"Cargo ATROTOS HERACLES",121,56458,1788.26495055165,121
59.91502,30.0328,"Cargo","AUTO BAY",2016-12-14 17:37:05,"Cargo AUTO BAY",118,58986,NA,NA
59.90988,30.05801,"Cargo","AUTO BAY",2016-12-14 17:35:04,"Cargo AUTO BAY",120,58987,1518.79684430855,121
59.90859,30.06578,"Cargo","AUTUMN WAVE",2016-12-19 09:33:04,"Cargo AUTUMN WAVE",120,59217,NA,NA
59.9051,30.08308,"Cargo","AUTUMN WAVE",2016-12-19 09:31:05,"Cargo AUTUMN WAVE",118,59218,1040.84858312292,119
59.9099,30.05861,"Cargo","AVELONA STAR",2016-12-17 02:51:04,"Cargo AVELONA STAR",119,65602,NA,NA
59.91263,30.04486,"Cargo","AVELONA STAR",2016-12-17 02:49:04,"Cargo AVELONA STAR",119,65603,825.359724235261,120
55.67568,21.14048,"Cargo","BALDER",2016-12-19 16:33:15,"Cargo BALDER",111,65679,NA,NA
55.66048,21.14977,"Cargo","BALDER",2016-12-19 16:25:06,"Cargo BALDER",489,65680,1789.7586280234,489
59.90739,30.07238,"Cargo","BALTIC HEATHER",2016-12-20 02:19:04,"Cargo BALTIC HEATHER",120,67431,NA,NA
59.9126,30.04639,"Cargo","BALTIC HEATHER",2016-12-20 02:17:04,"Cargo BALTIC HEATHER",119,67432,1562.1813362464,120
59.90835,30.06593,"Cargo","BALTIC PATRIOT",2016-12-18 05:49:03,"Cargo BALTIC PATRIOT",120,68989,NA,NA
59.91237,30.04677,"Cargo","BALTIC PATRIOT",2016-12-18 05:47:04,"Cargo BALTIC PATRIOT",119,68990,1159.19162748414,119
59.9075,30.07083,"Cargo","BALTIC PERFORMER",2016-12-13 15:33:04,"Cargo BALTIC PERFORMER",120,73620,NA,NA
59.91117,30.05283,"Cargo","BALTIC PERFORMER",2016-12-13 15:31:05,"Cargo BALTIC PERFORMER",118,73621,1084.51304422309,119
59.91264,30.04653,"Cargo","BALTIC PIONEER",2016-12-20 05:05:04,"Cargo BALTIC PIONEER",119,73775,NA,NA
59.91522,30.03235,"Cargo","BALTIC PIONEER",2016-12-20 05:03:05,"Cargo BALTIC PIONEER",118,73776,841.81614635484,119
59.90331,30.22391,"Cargo","BALTIC PRIME",2016-12-18 15:53:04,"Cargo BALTIC PRIME",119,75029,NA,NA
59.90751,30.22953,"Cargo","BALTIC PRIME",2016-12-18 15:51:04,"Cargo BALTIC PRIME",120,75030,563.031271099465,120
57.63161,11.68412,"Cargo","BALTICA",2016-12-19 14:49:05,"Cargo BALTICA",120,78530,NA,NA
57.6458,11.70329,"Cargo","BALTICA",2016-12-19 14:47:05,"Cargo BALTICA",120,78531,1949.33559775101,120
54.56953,18.84389,"Cargo","BALTICA HAV",2016-12-19 10:11:02,"Cargo BALTICA HAV",120,79481,NA,NA
54.57626,18.85364,"Cargo","BALTICA HAV",2016-12-19 10:09:01,"Cargo BALTICA HAV",121,79482,978.315204551399,121
54.98353,19.80258,"Cargo","BALTIYSK",2016-12-17 11:53:03,"Cargo BALTIYSK",119,79583,NA,NA
54.67425,19.80733,"Cargo","BALTIYSK",2016-12-17 10:03:03,"Cargo BALTIYSK",6600,79584,34430.2393251217,6600
54.50566,18.77121,"Cargo","BALTIYSKIY-202",2016-12-20 09:31:07,"Cargo BALTIYSKIY-202",114,80354,NA,NA
54.46891,18.71478,"Cargo","BALTIYSKIY-202",2016-12-20 09:11:07,"Cargo BALTIYSKIY-202",1195,80355,5481.89688442736,1200
59.9205,30.006,"Cargo","BARMBEK",2016-12-18 09:23:04,"Cargo BARMBEK",NA,84455,NA,NA
59.91767,30.02017,"Cargo","BARMBEK",2016-12-18 09:21:04,"Cargo BARMBEK",119,84456,851.08024583312,120
57.93184,11.67667,"Cargo","BBS SKY",2016-12-16 22:17:05,"Cargo BBS SKY",120,86129,NA,NA
57.94067,11.69033,"Cargo","BBS SKY",2016-12-16 22:15:05,"Cargo BBS SKY",120,86130,1271.94063767476,120
55.13744,19.81967,"Cargo","BEATA",2016-12-16 18:03:03,"Cargo BEATA",119,86202,NA,NA
54.6795,19.80137,"Cargo","BEATA",2016-12-16 15:31:02,"Cargo BEATA",9121,86203,50991.0976068189,9121
57.65701,11.75727,"Cargo","BEGONIA SEAWAYS",2016-12-18 13:17:05,"Cargo BEGONIA SEAWAYS",120,87269,NA,NA
57.65199,11.72603,"Cargo","BEGONIA SEAWAYS",2016-12-18 13:15:05,"Cargo BEGONIA SEAWAYS",120,87270,1942.71678639265,120
55.72531,21.0928,"Cargo","BEKAU",2016-12-16 18:27:07,"Cargo BEKAU",119,87661,NA,NA
55.71568,21.1116,"Cargo","BEKAU",2016-12-16 18:19:06,"Cargo BEKAU",481,87662,1593.30112791287,481
59.92099,30.00478,"Cargo","BELBEK",2016-12-15 10:09:05,"Cargo BELBEK",NA,87716,NA,NA
59.91674,30.02597,"Cargo","BELBEK",2016-12-15 10:07:04,"Cargo BELBEK",119,87717,1273.46590947794,121
54.38212,18.65497,"Cargo","BELIZIA",2016-12-13 13:33:02,"Cargo BELIZIA",120,89278,NA,NA
54.382,18.655,"Cargo","BELIZIA",2016-12-13 13:31:02,"Cargo BELIZIA",120,89279,13.4991796273842,120
59.90683,30.07483,"Cargo","BF CARTAGENA",2016-12-15 17:39:04,"Cargo BF CARTAGENA",119,89348,NA,NA
59.90217,30.09717,"Cargo","BF CARTAGENA",2016-12-15 17:37:05,"Cargo BF CARTAGENA",118,89349,1350.62060833795,119
59.8981,30.11638,"Cargo","BF FORTALEZA",2016-12-19 14:49:04,"Cargo BF FORTALEZA",119,91192,NA,NA
59.90128,30.1009,"Cargo","BF FORTALEZA",2016-12-19 14:47:04,"Cargo BF FORTALEZA",119,91193,933.914734458693,120
55.731,20.8115,"Cargo","BF VICTORIA",2016-12-16 20:51:06,"Cargo BF VICTORIA",120,91206,NA,NA
55.73117,20.83533,"Cargo","BF VICTORIA",2016-12-16 20:49:06,"Cargo BF VICTORIA",120,91207,1493.8207647946,120
57.67889,11.81503,"Cargo","BIRTHE BRES",2016-12-14 19:57:08,"Cargo BIRTHE BRES",117,93424,NA,NA
57.66332,11.77958,"Cargo","BIRTHE BRES",2016-12-14 19:55:05,"Cargo BIRTHE BRES",120,93425,2730.90748320524,123
55.71579,21.10976,"Cargo","BIRYUZA",2016-12-17 23:41:06,"Cargo BIRYUZA",121,95166,NA,NA
55.72635,21.08929,"Cargo","BIRYUZA",2016-12-17 23:31:06,"Cargo BIRYUZA",600,95167,1740.41571409746,600
55.73779,20.82914,"Cargo","BLUE CHIP",2016-12-15 16:41:07,"Cargo BLUE CHIP",119,95202,NA,NA
55.73701,20.85337,"Cargo","BLUE CHIP",2016-12-15 16:39:06,"Cargo BLUE CHIP",121,95203,1521.00822864841,121
59.90188,30.09837,"Cargo","BLUEBILL",2016-12-18 16:59:05,"Cargo BLUEBILL",118,97785,NA,NA
59.90444,30.08574,"Cargo","BLUEBILL",2016-12-18 16:57:04,"Cargo BLUEBILL",120,97786,760.455885521036,121
54.78593,18.98923,"Cargo","BOGDAN",2016-12-14 10:09:01,"Cargo BOGDAN",121,97838,NA,NA
54.38472,18.66143,"Cargo","BOGDAN",2016-12-14 02:51:02,"Cargo BOGDAN",26279,97839,49415.317785921,26279
55.7036,21.1275,"Cargo","BOMAR MOON",2016-12-15 05:17:06,"Cargo BOMAR MOON",120,101989,NA,NA
55.70339,21.12785,"Cargo","BOMAR MOON",2016-12-15 05:15:06,"Cargo BOMAR MOON",120,101990,32.0697407123641,120
59.90339,30.09083,"Cargo","BOMAR VALOUR",2016-12-18 14:37:04,"Cargo BOMAR VALOUR",120,104302,NA,NA
59.90634,30.07622,"Cargo","BOMAR VALOUR",2016-12-18 14:35:04,"Cargo BOMAR VALOUR",119,104303,879.161527039375,120
59.91208,30.04815,"Cargo","BOMAR VANQUISH",2016-12-13 18:41:04,"Cargo BOMAR VANQUISH",120,104316,NA,NA
59.90863,30.06465,"Cargo","BOMAR VANQUISH",2016-12-13 18:39:05,"Cargo BOMAR VANQUISH",118,104317,997.749500353372,119
59.90926,30.06262,"Cargo","BOREAS",2016-12-20 10:03:04,"Cargo BOREAS",119,104535,NA,NA
59.9026,30.09501,"Cargo","BOREAS",2016-12-20 09:55:04,"Cargo BOREAS",479,104536,1954.05100767905,480
55.73097,20.88806,"Cargo","BOTNIA SEAWAYS",2016-12-15 10:23:07,"Cargo BOTNIA SEAWAYS",119,106367,NA,NA
55.73257,20.92661,"Cargo","BOTNIA SEAWAYS",2016-12-15 10:21:07,"Cargo BOTNIA SEAWAYS",120,106368,2422.88613310341,120
55.72371,21.09603,"Cargo","BRIGGA",2016-12-15 22:27:07,"Cargo BRIGGA",239,107213,NA,NA
55.72816,21.07761,"Cargo","BRIGGA",2016-12-15 22:25:06,"Cargo BRIGGA",121,107214,1256.51571555802,121
59.90792,30.06747,"Cargo","BRIN NAVOLOK",2016-12-19 16:31:04,"Cargo BRIN NAVOLOK",128,107764,NA,NA
59.91186,30.04835,"Cargo","BRIN NAVOLOK",2016-12-19 16:25:04,"Cargo BRIN NAVOLOK",359,107765,1153.73169564158,360
54.50609,18.98727,"Cargo","CALISTO",2016-12-19 02:37:02,"Cargo CALISTO",119,108725,NA,NA
59.921,30.0035,"Cargo","CALISTO",2016-12-17 09:49:03,"Cargo CALISTO",146879,108726,894802.444721743,146879
57.94847,12.08942,"Cargo","CAROLINA",2016-12-20 08:37:07,"Cargo CAROLINA",118,109686,NA,NA
57.89535,12.03937,"Cargo","CAROLINA",2016-12-20 08:35:16,"Cargo CAROLINA",109,109687,6612.27038091129,111
54.52669,18.56057,"Cargo","CATHARINA SCHULTE",2016-12-16 12:57:07,"Cargo CATHARINA SCHULTE",121,112559,NA,NA
54.53396,18.55884,"Cargo","CATHARINA SCHULTE",2016-12-16 12:55:07,"Cargo CATHARINA SCHULTE",120,112560,816.971733484648,120
55.64794,21.16266,"Cargo","CEMISLE",2016-12-14 01:27:06,"Cargo CEMISLE",120,115083,NA,NA
55.65001,21.15734,"Cargo","CEMISLE",2016-12-14 01:05:06,"Cargo CEMISLE",1320,115084,405.913833537145,1320
55.82241,20.86578,"Cargo","CEMSOL",2016-12-18 15:35:06,"Cargo CEMSOL",121,115096,NA,NA
55.81088,20.8829,"Cargo","CEMSOL",2016-12-18 15:33:07,"Cargo CEMSOL",119,115097,1671.50326853927,119
59.90677,30.07293,"Cargo","CHARLOTTA B",2016-12-20 04:39:12,"Cargo CHARLOTTA B",112,116927,NA,NA
59.91285,30.04415,"Cargo","CHARLOTTA B",2016-12-20 04:35:03,"Cargo CHARLOTTA B",248,116928,1743.02528565388,249
59.91104,30.05359,"Cargo","CHAROITE",2016-12-20 08:57:04,"Cargo CHAROITE",119,116938,NA,NA
59.90694,30.07371,"Cargo","CHAROITE",2016-12-20 08:55:04,"Cargo CHAROITE",119,116939,1212.16129134736,120
59.9109,30.05385,"Cargo","CHRISTOPHER",2016-12-15 10:21:05,"Cargo CHRISTOPHER",119,118910,NA,NA
59.90701,30.07304,"Cargo","CHRISTOPHER",2016-12-15 10:19:04,"Cargo CHRISTOPHER",120,118911,1155.27623775145,121
57.62616,11.68129,"Cargo","CITY OF ROME",2016-12-15 04:29:06,"Cargo CITY OF ROME",120,120065,NA,NA
57.61467,11.66392,"Cargo","CITY OF ROME",2016-12-15 04:27:05,"Cargo CITY OF ROME",121,120066,1645.6804507862,121
59.91029,30.05716,"Cargo","CITY OF ROTTERDAM",2016-12-13 21:37:05,"Cargo CITY OF ROTTERDAM",119,120077,NA,NA
59.90517,30.08229,"Cargo","CITY OF ROTTERDAM",2016-12-13 21:35:05,"Cargo CITY OF ROTTERDAM",119,120078,1514.00724518494,120
59.91145,30.05126,"Cargo","CONMAR AVENUE",2016-12-15 01:15:05,"Cargo CONMAR AVENUE",119,120967,NA,NA
59.9152,30.03259,"Cargo","CONMAR AVENUE",2016-12-15 01:13:04,"Cargo CONMAR AVENUE",120,120968,1122.40622083922,121
55.67983,21.1375,"Cargo","CONTAINERSHIPS 6",2016-12-13 18:17:07,"Cargo CONTAINERSHIPS 6",120,121218,NA,NA
55.69683,21.12467,"Cargo","CONTAINERSHIPS 6",2016-12-13 18:11:07,"Cargo CONTAINERSHIPS 6",360,121219,2056.56449764007,360
55.75791,20.94193,"Cargo","CONTAINERSHIPS VII",2016-12-18 05:51:06,"Cargo CONTAINERSHIPS VII",120,121576,NA,NA
55.77592,20.91944,"Cargo","CONTAINERSHIPS VII",2016-12-18 05:49:05,"Cargo CONTAINERSHIPS VII",121,121577,2450.12414651174,121
59.91543,30.03143,"Cargo","DANUBE HIGHWAY",2016-12-15 17:23:05,"Cargo DANUBE HIGHWAY",118,121594,NA,NA
59.91272,30.04453,"Cargo","DANUBE HIGHWAY",2016-12-15 17:21:05,"Cargo DANUBE HIGHWAY",119,121595,790.836038419792,120
57.61215,11.66631,"Cargo","DANUBIA",2016-12-20 09:31:05,"Cargo DANUBIA",119,122050,NA,NA
57.65377,11.72674,"Cargo","DANUBIA",2016-12-20 09:11:05,"Cargo DANUBIA",1200,122051,5868.12005064412,1200
54.67177,19.80285,"Cargo","DELPHIS BOTHNIA",2016-12-18 06:51:02,"Cargo DELPHIS BOTHNIA",121,123692,NA,NA
59.91929,30.01159,"Cargo","DELPHIS BOTHNIA",2016-12-16 09:29:04,"Cargo DELPHIS BOTHNIA",163318,123693,845794.268978389,163318
55.72994,21.00316,"Cargo","DIJKSGRACHT",2016-12-18 13:13:06,"Cargo DIJKSGRACHT",120,125132,NA,NA
55.72404,21.02729,"Cargo","DIJKSGRACHT",2016-12-18 13:11:05,"Cargo DIJKSGRACHT",121,125133,1649.09638604876,121
54.68526,20.17245,"Cargo","DINTELBORG",2016-12-15 21:47:03,"Cargo DINTELBORG",120,128387,NA,NA
54.68567,20.22827,"Cargo","DINTELBORG",2016-12-15 21:31:03,"Cargo DINTELBORG",960,128388,3592.29915890973,960
54.73329,18.95905,"Cargo","DONGEBORG",2016-12-14 11:07:01,"Cargo DONGEBORG",120,134160,NA,NA
54.74545,18.9621,"Cargo","DONGEBORG",2016-12-14 11:05:01,"Cargo DONGEBORG",120,134161,1367.76214742204,120
54.69305,18.91599,"Cargo","DORNUM",2016-12-15 17:41:01,"Cargo DORNUM",121,134201,NA,NA
54.6854,18.9296,"Cargo","DORNUM",2016-12-15 17:39:01,"Cargo DORNUM",120,134202,1221.5149969885,120
57.60002,11.61614,"Cargo","DT BROSON",2016-12-15 08:33:06,"Cargo DT BROSON",720,135954,NA,NA
57.62032,11.80844,"Cargo","DT BROSON",2016-12-15 08:05:09,"Cargo DT BROSON",1677,135955,11687.634939924,1677
59.9155,30.03153,"Cargo","DURBAN STAR",2016-12-16 22:43:05,"Cargo DURBAN STAR",119,136121,NA,NA
59.91245,30.04652,"Cargo","DURBAN STAR",2016-12-16 22:41:04,"Cargo DURBAN STAR",120,136122,902.786298572201,121
54.53782,18.73003,"Cargo","E.R. TALLINN",2016-12-18 03:49:07,"Cargo E.R. TALLINN",115,139188,NA,NA
54.53731,18.75813,"Cargo","E.R. TALLINN",2016-12-18 03:47:06,"Cargo E.R. TALLINN",116,139189,1815.70171153739,121
59.9059,30.07702,"Cargo","E.R. VISBY",2016-12-20 04:09:04,"Cargo E.R. VISBY",126,139407,NA,NA
59.90855,30.06367,"Cargo","E.R. VISBY",2016-12-20 04:07:04,"Cargo E.R. VISBY",119,139408,801.409713364226,120
59.9085,30.066,"Cargo","EIRA",2016-12-19 14:49:04,"Cargo EIRA",119,139986,NA,NA
59.91333,30.043,"Cargo","EIRA",2016-12-19 14:47:04,"Cargo EIRA",119,139987,1391.67994842163,120
57.98357,12.12594,"Cargo","EKEN",2016-12-15 05:57:08,"Cargo EKEN",117,140851,NA,NA
57.99507,12.12761,"Cargo","EKEN",2016-12-15 05:55:08,"Cargo EKEN",117,140852,1283.96129716638,120
54.68555,20.23076,"Cargo","EMILIA",2016-12-16 03:11:03,"Cargo EMILIA",120,141686,NA,NA
54.68553,20.174,"Cargo","EMILIA",2016-12-16 02:57:03,"Cargo EMILIA",840,141687,3652.49200267757,840
55.73155,20.80289,"Cargo","EMOTION",2016-12-15 19:05:06,"Cargo EMOTION",121,142250,NA,NA
54.79411,18.97551,"Cargo","EMOTION",2016-12-15 12:07:02,"Cargo EMOTION",25084,142251,155958.098892865,25084
55.65434,21.158,"Cargo","EMSRUNNER",2016-12-18 06:25:07,"Cargo EMSRUNNER",120,144340,NA,NA
55.65417,21.15783,"Cargo","EMSRUNNER",2016-12-18 06:23:06,"Cargo EMSRUNNER",121,144341,21.7284183468692,121
54.53548,18.55798,"Cargo","ENFORCER",2016-12-16 12:57:07,"Cargo ENFORCER",121,146606,NA,NA
54.53519,18.59532,"Cargo","ENFORCER",2016-12-16 12:55:07,"Cargo ENFORCER",120,146607,2411.91903946403,120
55.83699,20.81754,"Cargo","ESL AFRICA",2016-12-19 19:41:06,"Cargo ESL AFRICA",127,147082,NA,NA
55.84693,20.80334,"Cargo","ESL AFRICA",2016-12-19 19:39:05,"Cargo ESL AFRICA",121,147083,1418.49173702036,121
59.91299,30.04387,"Cargo","EYSTNES",2016-12-19 14:57:04,"Cargo EYSTNES",120,147652,NA,NA
59.91605,30.02825,"Cargo","EYSTNES",2016-12-19 14:55:04,"Cargo EYSTNES",119,147653,935.846782969346,120
54.63331,19.89368,"Cargo","FALKBRIS",2016-12-18 13:03:02,"Cargo FALKBRIS",121,147790,NA,NA
54.6695,19.82589,"Cargo","FALKBRIS",2016-12-16 15:31:02,"Cargo FALKBRIS",163920,147791,5940.65982571314,163920
59.91337,30.22852,"Cargo","FAST HERMAN",2016-12-13 14:07:05,"Cargo FAST HERMAN",118,148315,NA,NA
59.89684,30.21549,"Cargo","FAST HERMAN",2016-12-13 14:05:04,"Cargo FAST HERMAN",120,148316,1978.63897990516,121
57.65933,11.76567,"Cargo","FAUST",2016-12-15 21:13:05,"Cargo FAUST",121,148411,NA,NA
57.66729,11.78699,"Cargo","FAUST",2016-12-15 21:11:05,"Cargo FAUST",120,148412,1548.14641551934,120
59.91267,30.04512,"Cargo","FEDERAL CEDAR",2016-12-19 14:27:04,"Cargo FEDERAL CEDAR",119,149718,NA,NA
59.91711,30.0232,"Cargo","FEDERAL CEDAR",2016-12-19 14:25:04,"Cargo FEDERAL CEDAR",119,149719,1319.28317690064,120
57.60081,11.69005,"Cargo","FEDERAL SATSUKI",2016-12-16 13:21:06,"Cargo FEDERAL SATSUKI",119,149865,NA,NA
57.60059,11.69063,"Cargo","FEDERAL SATSUKI",2016-12-16 13:19:06,"Cargo FEDERAL SATSUKI",120,149866,42.3863055968595,120
54.68565,20.22589,"Cargo","FEHN LIGHT",2016-12-16 18:11:02,"Cargo FEHN LIGHT",120,149995,NA,NA
54.68486,20.17102,"Cargo","FEHN LIGHT",2016-12-16 17:53:03,"Cargo FEHN LIGHT",1079,149996,3531.99011185848,1079
59.90938,30.0614,"Cargo","FEHN POLLUX",2016-12-20 05:35:04,"Cargo FEHN POLLUX",119,150193,NA,NA
59.91251,30.04595,"Cargo","FEHN POLLUX",2016-12-20 05:33:04,"Cargo FEHN POLLUX",119,150194,929.995044092693,120
57.65243,11.72356,"Cargo","FICARIA SEAWAYS",2016-12-15 17:05:05,"Cargo FICARIA SEAWAYS",120,151505,NA,NA
57.65739,11.75459,"Cargo","FICARIA SEAWAYS",2016-12-15 17:01:06,"Cargo FICARIA SEAWAYS",239,151506,1928.79886478893,239
59.91375,30.03851,"Cargo","FINNHAWK",2016-12-16 06:31:05,"Cargo FINNHAWK",119,152213,NA,NA
59.91904,30.01286,"Cargo","FINNHAWK",2016-12-16 06:29:04,"Cargo FINNHAWK",120,152214,1547.68857829503,121
54.79053,18.89155,"Cargo","FINNKRAFT",2016-12-15 16:49:02,"Cargo FINNKRAFT",120,152933,NA,NA
54.6725,18.99983,"Cargo","FINNKRAFT",2016-12-13 22:31:02,"Cargo FINNKRAFT",152280,152934,14868.5700969393,152280
59.92145,30.002,"Cargo","FINNMILL",2016-12-15 09:57:04,"Cargo FINNMILL",120,153265,NA,NA
59.91888,30.01486,"Cargo","FINNMILL",2016-12-15 09:55:04,"Cargo FINNMILL",120,153266,772.444371032367,120
54.66213,18.93311,"Cargo","FINNPULP",2016-12-19 06:25:02,"Cargo FINNPULP",120,154818,NA,NA
54.67507,18.94194,"Cargo","FINNPULP",2016-12-19 06:23:02,"Cargo FINNPULP",120,154819,1548.5787217859,120
59.88737,30.17005,"Cargo","FINNTIDE",2016-12-20 03:17:04,"Cargo FINNTIDE",119,155037,NA,NA
59.89004,30.15668,"Cargo","FINNTIDE",2016-12-20 03:15:04,"Cargo FINNTIDE",119,155038,803.655567471999,120
59.91085,30.05435,"Cargo","FINNWAVE",2016-12-15 03:05:04,"Cargo FINNWAVE",119,155492,NA,NA
59.91479,30.03485,"Cargo","FINNWAVE",2016-12-15 03:03:04,"Cargo FINNWAVE",119,155493,1173.28632727524,120
59.90627,30.27033,"Cargo","FITTER",2016-12-15 22:15:04,"Cargo FITTER",119,157482,NA,NA
59.9109,30.26538,"Cargo","FITTER",2016-12-15 22:13:05,"Cargo FITTER",118,157483,584.786747457552,119
54.53627,18.5201,"Cargo","FJORDVIK",2016-12-15 15:11:08,"Cargo FJORDVIK",120,161314,NA,NA
54.53645,18.51995,"Cargo","FJORDVIK",2016-12-15 15:09:07,"Cargo FJORDVIK",121,161315,22.2566224058551,121
54.64883,19.86498,"Cargo","FOREST",2016-12-15 19:07:03,"Cargo FOREST",119,162641,NA,NA
54.6327,19.90475,"Cargo","FOREST",2016-12-15 19:05:02,"Cargo FOREST",121,162642,3128.58157324127,121
55.72543,21.09268,"Cargo","FORSETI",2016-12-17 19:35:06,"Cargo FORSETI",120,162710,NA,NA
55.71317,21.11337,"Cargo","FORSETI",2016-12-17 19:27:06,"Cargo FORSETI",480,162711,1882.95821988067,480
54.54131,18.52987,"Cargo","FRANCISCA",2016-12-18 16:47:07,"Cargo FRANCISCA",120,164875,NA,NA
54.54143,18.52991,"Cargo","FRANCISCA",2016-12-18 16:45:07,"Cargo FRANCISCA",120,164876,13.6057983387216,120
55.7121,20.80083,"Cargo","FREDERIK",2016-12-17 05:11:06,"Cargo FREDERIK",119,169041,NA,NA
55.19833,19.88672,"Cargo","FREDERIK",2016-12-17 00:37:03,"Cargo FREDERIK",16443,169042,81242.2906617495,16443
57.64865,11.70891,"Cargo","FREESIA SEAWAYS",2016-12-16 21:43:08,"Cargo FREESIA SEAWAYS",119,169883,NA,NA
57.62766,11.68233,"Cargo","FREESIA SEAWAYS",2016-12-16 21:41:08,"Cargo FREESIA SEAWAYS",120,169884,2822.77111731458,120
57.66083,11.77167,"Cargo","FREYA",2016-12-15 16:05:06,"Cargo FREYA",120,170250,NA,NA
57.67333,11.798,"Cargo","FREYA",2016-12-15 16:03:05,"Cargo FREYA",121,170251,2096.12167554962,121
54.7537,18.73457,"Cargo","FRI OCEAN",2016-12-13 18:53:07,"Cargo FRI OCEAN",115,170625,NA,NA
54.74643,18.75352,"Cargo","FRI OCEAN",2016-12-13 18:51:07,"Cargo FRI OCEAN",115,170626,1461.92766369193,120
59.90305,30.09235,"Cargo","FRI PORSGRUNN",2016-12-14 15:07:04,"Cargo FRI PORSGRUNN",120,174993,NA,NA
59.90734,30.07189,"Cargo","FRI PORSGRUNN",2016-12-14 15:05:05,"Cargo FRI PORSGRUNN",118,174994,1237.88791112611,119
55.73383,20.8565,"Cargo","FRI STREAM",2016-12-16 22:59:06,"Cargo FRI STREAM",121,175009,NA,NA
55.73333,20.90433,"Cargo","FRI STREAM",2016-12-16 22:57:06,"Cargo FRI STREAM",120,175010,2998.38264233167,120
55.72581,21.09032,"Cargo","FRIGGA",2016-12-18 21:53:06,"Cargo FRIGGA",120,175562,NA,NA
55.7151,21.10993,"Cargo","FRIGGA",2016-12-18 21:47:06,"Cargo FRIGGA",360,175563,1712.6396932289,360
55.72822,21.05804,"Cargo","GALAN",2016-12-14 17:51:06,"Cargo GALAN",121,177364,NA,NA
55.72813,21.07358,"Cargo","GALAN",2016-12-14 17:47:18,"Cargo GALAN",228,177365,974.195123642309,228
55.7138,20.84608,"Cargo","GENCO RELIANCE",2016-12-19 13:05:06,"Cargo GENCO RELIANCE",128,178655,NA,NA
55.71255,20.84023,"Cargo","GENCO RELIANCE",2016-12-19 13:01:08,"Cargo GENCO RELIANCE",238,178656,392.358584834383,238
54.58765,18.89527,"Cargo","GENCO THUNDER",2016-12-15 20:11:02,"Cargo GENCO THUNDER",120,178689,NA,NA
54.57504,18.88104,"Cargo","GENCO THUNDER",2016-12-15 20:09:01,"Cargo GENCO THUNDER",121,178690,1677.28677816254,121
59.90361,30.08928,"Cargo","GEOR.POBEDONOSETS",2016-12-19 04:39:04,"Cargo GEOR.POBEDONOSETS",119,181025,NA,NA
59.90687,30.07317,"Cargo","GEOR.POBEDONOSETS",2016-12-19 04:37:05,"Cargo GEOR.POBEDONOSETS",118,181026,969.711654634306,119
55.72425,21.09582,"Cargo","GRAND",2016-12-17 17:47:06,"Cargo GRAND",122,181078,NA,NA
55.71623,21.1096,"Cargo","GRAND",2016-12-17 17:41:06,"Cargo GRAND",360,181079,1242.39343962483,360
57.93951,11.68789,"Cargo","GRANDE EUROPA",2016-12-19 04:27:05,"Cargo GRANDE EUROPA",120,182201,NA,NA
57.9532,11.70476,"Cargo","GRANDE EUROPA",2016-12-19 04:25:06,"Cargo GRANDE EUROPA",119,182202,1820.93174236095,119
57.92467,11.6568,"Cargo","GRANDE MEDITERRANEO",2016-12-14 15:43:05,"Cargo GRANDE MEDITERRANEO",120,182238,NA,NA
57.93787,11.68484,"Cargo","GRANDE MEDITERRANEO",2016-12-14 15:41:05,"Cargo GRANDE MEDITERRANEO",120,182239,2214.88349721425,120
55.72839,20.93926,"Cargo","GREEN ATLANTIC",2016-12-14 19:57:06,"Cargo GREEN ATLANTIC",120,183454,NA,NA
55.72941,20.89913,"Cargo","GREEN ATLANTIC",2016-12-14 19:55:06,"Cargo GREEN ATLANTIC",120,183455,2518.11190035474,120
54.70317,18.98531,"Cargo","GREEN MALOY",2016-12-13 23:41:02,"Cargo GREEN MALOY",120,183485,NA,NA
54.67597,18.97043,"Cargo","GREEN MALOY",2016-12-13 23:39:01,"Cargo GREEN MALOY",121,183486,3175.65570055293,121
57.69635,11.91565,"Cargo","GUTE",2016-12-14 10:09:08,"Cargo GUTE",118,185571,NA,NA
57.60435,11.60661,"Cargo","GUTE",2016-12-13 20:49:05,"Cargo GUTE",48000,185572,21065.1880688657,48003
57.66417,11.7795,"Cargo","HANNA",2016-12-13 14:47:05,"Cargo HANNA",121,186014,NA,NA
57.6785,11.80817,"Cargo","HANNA",2016-12-13 14:45:05,"Cargo HANNA",120,186015,2336.16949717552,120
55.72609,21.08812,"Cargo","HAUKUR",2016-12-13 23:43:06,"Cargo HAUKUR",121,186174,NA,NA
55.72101,21.10265,"Cargo","HAUKUR",2016-12-13 23:39:06,"Cargo HAUKUR",240,186175,1072.19516935747,240
54.6917,18.99523,"Cargo","HEINA",2016-12-16 00:43:02,"Cargo HEINA",119,189690,NA,NA
54.72828,18.9864,"Cargo","HEINA",2016-12-16 00:23:02,"Cargo HEINA",1200,189691,4111.47188307902,1200
59.90443,30.08541,"Cargo","HEINRICH SCHEPERS",2016-12-15 17:49:05,"Cargo HEINRICH SCHEPERS",118,189716,NA,NA
59.90049,30.1049,"Cargo","HEINRICH SCHEPERS",2016-12-15 17:47:04,"Cargo HEINRICH SCHEPERS",120,189717,1173.08354400607,121
55.7266,21.08808,"Cargo","HELGA",2016-12-14 17:03:06,"Cargo HELGA",120,190577,NA,NA
55.72045,21.10403,"Cargo","HELGA",2016-12-14 16:57:06,"Cargo HELGA",360,190578,1211.86862451488,360
57.99721,11.76468,"Cargo","HELGE",2016-12-20 06:17:06,"Cargo HELGE",NA,191231,NA,NA
57.98425,11.75003,"Cargo","HELGE",2016-12-20 06:13:05,"Cargo HELGE",241,191232,1681.852592577,241
54.68575,20.22571,"Cargo","HELT",2016-12-17 03:39:03,"Cargo HELT",119,191374,NA,NA
54.68167,20.16127,"Cargo","HELT",2016-12-17 03:23:02,"Cargo HELT",961,191375,4171.68211754027,961
54.79905,18.5848,"Cargo","HENDRIKA MARGARETHA",2016-12-19 16:45:06,"Cargo HENDRIKA MARGARETHA",116,192355,NA,NA
57.92032,11.60437,"Cargo","HENDRIKA MARGARETHA",2016-12-13 20:05:05,"Cargo HENDRIKA MARGARETHA",506401,192356,552737.48669579,506401
59.90508,30.08266,"Cargo","HENNEKE RAMBOW",2016-12-18 08:43:04,"Cargo HENNEKE RAMBOW",119,192387,NA,NA
59.90027,30.10585,"Cargo","HENNEKE RAMBOW",2016-12-18 08:41:05,"Cargo HENNEKE RAMBOW",119,192388,1400.91057648479,119
57.65933,11.76417,"Cargo","HOEGH TRIDENT",2016-12-14 17:13:05,"Cargo HOEGH TRIDENT",121,193005,NA,NA
57.66784,11.78583,"Cargo","HOEGH TRIDENT",2016-12-14 17:11:04,"Cargo HOEGH TRIDENT",121,193006,1600.24883818452,121
59.90167,30.09926,"Cargo","HOOD ISLAND",2016-12-19 14:27:04,"Cargo HOOD ISLAND",119,193800,NA,NA
59.90606,30.07799,"Cargo","HOOD ISLAND",2016-12-19 14:25:04,"Cargo HOOD ISLAND",119,193801,1283.95994882485,120
59.91205,30.04817,"Cargo","HOOGE",2016-12-15 15:07:05,"Cargo HOOGE",118,195092,NA,NA
59.9176,30.02119,"Cargo","HOOGE",2016-12-15 15:03:04,"Cargo HOOGE",240,195093,1627.40010807878,241
59.90733,30.07104,"Cargo","HVITANES",2016-12-13 18:41:04,"Cargo HVITANES",120,195102,NA,NA
59.9038,30.08871,"Cargo","HVITANES",2016-12-13 18:39:05,"Cargo HVITANES",118,195103,1061.71146438533,119
59.86925,30.21973,"Cargo","ICE RIVER",2016-12-13 21:01:05,"Cargo ICE RIVER",118,195482,NA,NA
59.86879,30.22008,"Cargo","ICE RIVER",2016-12-13 20:59:05,"Cargo ICE RIVER",119,195483,54.8148566843358,120
57.63196,11.68386,"Cargo","ICE RUNNER",2016-12-16 23:35:04,"Cargo ICE RUNNER",121,195776,NA,NA
57.64557,11.70243,"Cargo","ICE RUNNER",2016-12-16 23:33:05,"Cargo ICE RUNNER",119,195777,1876.08714866952,119
57.68828,11.89038,"Cargo","ICELAND CEMENT",2016-12-18 23:49:08,"Cargo ICELAND CEMENT",117,197247,NA,NA
57.69333,11.90667,"Cargo","ICELAND CEMENT",2016-12-18 23:47:07,"Cargo ICELAND CEMENT",119,197248,1120.46830140781,121
57.93297,12.067,"Cargo","IDA H",2016-12-16 15:51:08,"Cargo IDA H",117,198447,NA,NA
57.91244,12.0521,"Cargo","IDA H",2016-12-16 15:43:07,"Cargo IDA H",478,198448,2449.26628404507,481
54.75998,18.99467,"Cargo","IDUNA",2016-12-14 15:49:01,"Cargo IDUNA",121,198974,NA,NA
54.70171,18.99737,"Cargo","IDUNA",2016-12-14 15:27:02,"Cargo IDUNA",1319,198975,6488.90800389333,1319
59.91415,30.03794,"Cargo","INA LOTTE",2016-12-14 15:13:04,"Cargo INA LOTTE",119,202077,NA,NA
59.91727,30.02257,"Cargo","INA LOTTE",2016-12-14 15:11:04,"Cargo INA LOTTE",119,202078,925.324515046738,120
54.69598,18.99102,"Cargo","IRIS BOLTEN",2016-12-15 10:15:01,"Cargo IRIS BOLTEN",121,202439,NA,NA
55.62799,20.80453,"Cargo","IRIS BOLTEN",2016-12-15 03:51:06,"Cargo IRIS BOLTEN",23035,202440,155116.907937662,23035
54.70267,20.45184,"Cargo","IVAN SHCHEPETOV",2016-12-14 18:27:03,"Cargo IVAN SHCHEPETOV",120,203100,NA,NA
54.6701,20.14155,"Cargo","IVAN SHCHEPETOV",2016-12-14 02:47:02,"Cargo IVAN SHCHEPETOV",56401,203101,20293.1652999146,56401
55.73813,20.81173,"Cargo","IVS KITE",2016-12-14 16:09:07,"Cargo IVS KITE",NA,203115,NA,NA
55.73795,20.83695,"Cargo","IVS KITE",2016-12-14 16:07:06,"Cargo IVS KITE",121,203116,1580.67358120879,121
55.69443,20.88115,"Cargo","JADE",2016-12-14 22:57:06,"Cargo JADE",121,204480,NA,NA
55.68204,20.84196,"Cargo","JADE",2016-12-14 22:55:06,"Cargo JADE",120,204481,2819.55955381229,120
57.65103,11.79379,"Cargo","JETTEN GBG STAD VA",2016-12-14 10:09:05,"Cargo JETTEN GBG STAD VA",121,207546,NA,NA
57.60263,11.79241,"Cargo","JETTEN GBG STAD VA",2016-12-13 14:21:05,"Cargo JETTEN GBG STAD VA",71280,207547,5388.49117579613,71280
57.93277,11.67727,"Cargo","JOMI",2016-12-15 11:27:06,"Cargo JOMI",119,207669,NA,NA
57.92633,11.655,"Cargo","JOMI",2016-12-15 11:25:05,"Cargo JOMI",121,207670,1498.86125719657,121
57.61271,11.67293,"Cargo","JONNI RITSCHER",2016-12-19 03:53:05,"Cargo JONNI RITSCHER",121,208534,NA,NA
57.60165,11.66195,"Cargo","JONNI RITSCHER",2016-12-19 03:51:05,"Cargo JONNI RITSCHER",120,208535,1394.49188483912,120
54.58729,18.87202,"Cargo","JSP ROVER",2016-12-17 13:37:02,"Cargo JSP ROVER",120,209087,NA,NA
54.60287,18.88745,"Cargo","JSP ROVER",2016-12-17 13:35:01,"Cargo JSP ROVER",121,209088,1999.56909147333,121
54.53614,18.81624,"Cargo","JUNO",2016-12-17 14:01:01,"Cargo JUNO",121,209169,NA,NA
54.52653,18.80179,"Cargo","JUNO",2016-12-17 13:59:01,"Cargo JUNO",120,209170,1419.73019882694,120
59.91813,30.01789,"Cargo","KAIE",2016-12-18 17:03:05,"Cargo KAIE",119,213112,NA,NA
59.92081,30.00438,"Cargo","KAIE",2016-12-18 17:01:04,"Cargo KAIE",119,213113,810.683915661447,121
59.91663,30.02603,"Cargo","KAPITAN MIRONOV",2016-12-20 02:29:04,"Cargo KAPITAN MIRONOV",119,213339,NA,NA
59.91975,30.01034,"Cargo","KAPITAN MIRONOV",2016-12-20 02:27:04,"Cargo KAPITAN MIRONOV",119,213340,941.838457701937,120
59.88849,30.16375,"Cargo","KAPITAN YAKOVLEV",2016-12-16 08:37:04,"Cargo KAPITAN YAKOVLEV",120,213361,NA,NA
59.88624,30.17687,"Cargo","KAPITAN YAKOVLEV",2016-12-16 08:35:05,"Cargo KAPITAN YAKOVLEV",118,213362,774.366788161606,119
54.53733,18.6585,"Cargo","KAREN C",2016-12-18 11:05:07,"Cargo KAREN C",115,216130,NA,NA
54.53817,18.68033,"Cargo","KAREN C",2016-12-18 11:03:06,"Cargo KAREN C",116,216131,1412.96259972169,121
54.54369,18.80568,"Cargo","KAROLI",2016-12-19 12:59:02,"Cargo KAROLI",120,216834,NA,NA
54.5644,18.83774,"Cargo","KAROLI",2016-12-19 12:55:01,"Cargo KAROLI",241,216835,3098.18940038824,241
59.91918,30.01302,"Cargo","KEGUMS",2016-12-13 21:33:04,"Cargo KEGUMS",120,216879,NA,NA
59.91596,30.02845,"Cargo","KEGUMS",2016-12-13 21:31:04,"Cargo KEGUMS",119,216880,932.605617475138,120
54.76132,18.98187,"Cargo","KERLI",2016-12-17 08:01:02,"Cargo KERLI",120,217190,NA,NA
54.73725,18.97902,"Cargo","KERLI",2016-12-17 07:59:01,"Cargo KERLI",121,217191,2685.70948317424,121
59.89115,30.20763,"Cargo","KNOSSOS",2016-12-16 09:53:05,"Cargo KNOSSOS",119,221208,NA,NA
59.89617,30.21417,"Cargo","KNOSSOS",2016-12-16 09:51:04,"Cargo KNOSSOS",119,221209,667.565467161262,121
55.72777,21.08245,"Cargo","KONYA",2016-12-15 16:19:07,"Cargo KONYA",120,226012,NA,NA
55.72832,21.06178,"Cargo","KONYA",2016-12-15 16:17:06,"Cargo KONYA",121,226013,1297.17385392188,121
54.6377,19.98747,"Cargo","KOZNITZA",2016-12-20 09:31:03,"Cargo KOZNITZA",119,227014,NA,NA
54.63397,19.93747,"Cargo","KOZNITZA",2016-12-20 09:11:03,"Cargo KOZNITZA",1200,227015,3248.07546359197,1200
54.42725,18.89543,"Cargo","KYMOPOLIA",2016-12-16 12:57:02,"Cargo KYMOPOLIA",120,227056,NA,NA
54.4211,18.846,"Cargo","KYMOPOLIA",2016-12-16 12:55:01,"Cargo KYMOPOLIA",121,227057,3273.64340019776,121
57.99671,12.12702,"Cargo","LADY AMI",2016-12-19 12:33:08,"Cargo LADY AMI",NA,229035,NA,NA
57.98264,12.12585,"Cargo","LADY AMI",2016-12-19 12:27:08,"Cargo LADY AMI",357,229036,1567.78605570034,360
54.57534,18.85512,"Cargo","LANTAU ARROW",2016-12-13 12:51:02,"Cargo LANTAU ARROW",119,229575,NA,NA
54.5937,18.8818,"Cargo","LANTAU ARROW",2016-12-13 12:49:02,"Cargo LANTAU ARROW",120,229576,2671.98107340955,120
55.6684,21.14289,"Cargo","LARGONA",2016-12-17 10:07:06,"Cargo LARGONA",121,229637,NA,NA
55.65171,21.15729,"Cargo","LARGONA",2016-12-17 09:57:06,"Cargo LARGONA",600,229638,2066.28978648305,600
59.90895,30.06353,"Cargo","LAVAUX",2016-12-14 22:29:04,"Cargo LAVAUX",119,229706,NA,NA
59.90585,30.07876,"Cargo","LAVAUX",2016-12-14 22:27:04,"Cargo LAVAUX",119,229707,917.44537287102,120
59.91127,30.052,"Cargo","LAZURITE",2016-12-20 05:35:04,"Cargo LAZURITE",119,230660,NA,NA
59.91562,30.03036,"Cargo","LAZURITE",2016-12-20 05:33:04,"Cargo LAZURITE",119,230661,1301.09621266185,120
57.65167,11.72317,"Cargo","LECKO",2016-12-20 10:27:05,"Cargo LECKO",120,230673,NA,NA
57.61483,11.67417,"Cargo","LECKO",2016-12-20 10:11:05,"Cargo LECKO",960,230674,5034.39480992664,960
54.76741,18.95644,"Cargo","LILY-B",2016-12-15 23:13:02,"Cargo LILY-B",120,230988,NA,NA
54.76496,18.98556,"Cargo","LILY-B",2016-12-15 23:11:01,"Cargo LILY-B",121,230989,1889.92199556495,121
55.83518,20.86139,"Cargo","LINDA",2016-12-15 12:59:07,"Cargo LINDA",119,232432,NA,NA
55.8541,20.839,"Cargo","LINDA",2016-12-15 12:57:06,"Cargo LINDA",121,232433,2528.6602792876,121
54.50918,18.78108,"Cargo","LINGEDIJK",2016-12-14 10:09:07,"Cargo LINGEDIJK",115,232499,NA,NA
54.40303,18.67678,"Cargo","LINGEDIJK",2016-12-14 02:51:02,"Cargo LINGEDIJK",26279,232500,13608.3680664306,26285
54.54704,18.81022,"Cargo","LISA",2016-12-15 13:11:02,"Cargo LISA",120,233644,NA,NA
54.55636,18.82552,"Cargo","LISA",2016-12-15 13:09:01,"Cargo LISA",121,233645,1432.5292447975,121
54.73518,18.7587,"Cargo","LISA D",2016-12-16 03:01:07,"Cargo LISA D",115,234409,NA,NA
54.7411,18.74127,"Cargo","LISA D",2016-12-16 02:59:07,"Cargo LISA D",114,234410,1299.63802464349,120
59.91631,30.0266,"Cargo","LISTER",2016-12-19 03:19:04,"Cargo LISTER",119,235341,NA,NA
59.91955,30.01055,"Cargo","LISTER",2016-12-19 03:17:04,"Cargo LISTER",119,235342,965.455409815079,120
54.71239,18.92755,"Cargo","LIV KRISTIN",2016-12-16 18:09:02,"Cargo LIV KRISTIN",119,235372,NA,NA
54.6979,18.96096,"Cargo","LIV KRISTIN",2016-12-16 18:07:01,"Cargo LIV KRISTIN",121,235373,2686.9209138275,121
55.66075,20.80509,"Cargo","LIVA GRETA",2016-12-17 05:11:06,"Cargo LIVA GRETA",119,236465,NA,NA
54.67803,18.99798,"Cargo","LIVA GRETA",2016-12-16 19:53:02,"Cargo LIVA GRETA",33484,236466,158636.853402136,33484
54.53465,18.52815,"Cargo","LORD BYRON",2016-12-20 00:13:06,"Cargo LORD BYRON",129,238923,NA,NA
54.53497,18.52835,"Cargo","LORD BYRON",2016-12-20 00:11:07,"Cargo LORD BYRON",119,238924,37.8920924336595,119
57.87833,12.0275,"Cargo","LURO",2016-12-15 05:57:08,"Cargo LURO",117,243585,NA,NA
57.8895,12.03617,"Cargo","LURO",2016-12-15 05:55:08,"Cargo LURO",117,243586,1345.14499222917,120
55.67367,21.14067,"Cargo","LYRA",2016-12-14 18:33:07,"Cargo LYRA",119,243824,NA,NA
55.66217,21.14783,"Cargo","LYRA",2016-12-14 18:27:07,"Cargo LYRA",360,243825,1356.80475530897,360
59.91979,30.00944,"Cargo","MAERSK NIAMEY",2016-12-20 10:03:04,"Cargo MAERSK NIAMEY",NA,244513,NA,NA
59.91205,30.04847,"Cargo","MAERSK NIAMEY",2016-12-20 09:55:04,"Cargo MAERSK NIAMEY",479,244514,2342.15894337249,480
54.78387,18.98247,"Cargo","MAERSKMCKINNEYMOLLER",2016-12-19 10:57:02,"Cargo MAERSKMCKINNEYMOLLER",120,246165,NA,NA
54.45481,18.99613,"Cargo","MAERSKMCKINNEYMOLLER",2016-12-19 09:41:02,"Cargo MAERSKMCKINNEYMOLLER",4560,246166,36641.3710793647,4560
57.62883,11.68972,"Cargo","MAGNOLIA SEAWAYS",2016-12-16 06:05:05,"Cargo MAGNOLIA SEAWAYS",121,248996,NA,NA
57.61156,11.66525,"Cargo","MAGNOLIA SEAWAYS",2016-12-16 06:03:05,"Cargo MAGNOLIA SEAWAYS",120,248997,2413.29295254316,120
54.54233,18.5095,"Cargo","MARIS",2016-12-14 10:09:07,"Cargo MARIS",121,249728,NA,NA
54.73133,18.7965,"Cargo","MARIS",2016-12-14 02:51:02,"Cargo MARIS",26285,249729,28009.8704828783,26285
54.38618,18.67183,"Cargo","MARNE",2016-12-13 16:41:02,"Cargo MARNE",120,250037,NA,NA
54.38641,18.67165,"Cargo","MARNE",2016-12-13 16:39:02,"Cargo MARNE",120,250038,28.1368976441457,120
55.72418,21.09668,"Cargo","MAUREEN S",2016-12-19 04:59:06,"Cargo MAUREEN S",120,250139,NA,NA
55.71506,21.11333,"Cargo","MAUREEN S",2016-12-19 04:53:06,"Cargo MAUREEN S",360,250140,1456.20721963587,360
57.68228,11.83933,"Cargo","MELUSINE",2016-12-14 19:57:08,"Cargo MELUSINE",117,251131,NA,NA
57.67873,11.7854,"Cargo","MELUSINE",2016-12-14 19:55:05,"Cargo MELUSINE",120,251132,3233.92584096325,123
54.45842,18.69403,"Cargo","MERI",2016-12-16 12:57:07,"Cargo MERI",115,251223,NA,NA
54.4373,18.65869,"Cargo","MERI",2016-12-16 12:55:07,"Cargo MERI",115,251224,3280.21260629561,120
55.10017,19.80171,"Cargo","MERITA",2016-12-20 00:39:03,"Cargo MERITA",119,253253,NA,NA
54.67559,19.80014,"Cargo","MERITA",2016-12-19 22:13:02,"Cargo MERITA",8761,253254,47264.1362994666,8761
59.90845,30.06624,"Cargo","MIKHAIL DUDIN",2016-12-15 04:01:04,"Cargo MIKHAIL DUDIN",119,255292,NA,NA
59.91255,30.04623,"Cargo","MIKHAIL DUDIN",2016-12-15 03:59:04,"Cargo MIKHAIL DUDIN",119,255293,1206.4289013439,120
59.90219,30.09733,"Cargo","MIKHAIL LOMONOSOV",2016-12-18 21:43:04,"Cargo MIKHAIL LOMONOSOV",120,255309,NA,NA
59.89796,30.11797,"Cargo","MIKHAIL LOMONOSOV",2016-12-18 21:41:04,"Cargo MIKHAIL LOMONOSOV",119,255310,1244.78575346297,120
54.799,18.99783,"Cargo","MILAN EXPRESS",2016-12-17 00:51:02,"Cargo MILAN EXPRESS",120,258709,NA,NA
59.92189,30.00013,"Cargo","MILAN EXPRESS",2016-12-13 18:35:05,"Cargo MILAN EXPRESS",281757,258710,870758.400318458,281757
57.69861,11.9183,"Cargo","MINERVA",2016-12-18 23:33:08,"Cargo MINERVA",117,259522,NA,NA
57.69083,11.90092,"Cargo","MINERVA",2016-12-18 23:31:07,"Cargo MINERVA",119,259523,1348.77116984135,121
54.64986,19.86447,"Cargo","MIRVA VG",2016-12-19 15:31:03,"Cargo MIRVA VG",120,259615,NA,NA
54.65864,19.83358,"Cargo","MIRVA VG",2016-12-19 15:23:03,"Cargo MIRVA VG",480,259616,2216.43376558663,480
59.9165,30.02633,"Cargo","MISANA",2016-12-19 17:55:04,"Cargo MISANA",126,261099,NA,NA
59.91268,30.04517,"Cargo","MISANA",2016-12-19 17:53:04,"Cargo MISANA",120,261100,1134.07966672005,120
55.70358,21.12029,"Cargo","MISTRAL",2016-12-16 20:21:06,"Cargo MISTRAL",120,261612,NA,NA
55.68801,21.13291,"Cargo","MISTRAL",2016-12-16 20:15:06,"Cargo MISTRAL",360,261613,1905.52189701251,360
57.67783,11.71817,"Cargo","MITO STRAIT",2016-12-15 20:21:05,"Cargo MITO STRAIT",120,261783,NA,NA
57.67717,11.75267,"Cargo","MITO STRAIT",2016-12-15 20:19:05,"Cargo MITO STRAIT",120,261784,2054.78073674873,120
59.91857,30.01613,"Cargo","MODULUS 2",2016-12-14 10:09:04,"Cargo MODULUS 2",120,262501,NA,NA
59.87159,30.21377,"Cargo","MODULUS 2",2016-12-14 02:29:04,"Cargo MODULUS 2",27599,262502,12211.9621426075,27600
57.60555,11.66162,"Cargo","MOL QUINTET",2016-12-15 18:45:09,"Cargo MOL QUINTET",116,263836,NA,NA
54.46572,18.99627,"Cargo","MOL QUINTET",2016-12-14 17:49:01,"Cargo MOL QUINTET",89768,263837,574153.307288814,89768
57.67567,11.80383,"Cargo","MSC AMY",2016-12-17 00:47:07,"Cargo MSC AMY",117,264543,NA,NA
57.68117,11.8255,"Cargo","MSC AMY",2016-12-17 00:45:08,"Cargo MSC AMY",117,264544,1427.72469074053,119
55.72766,20.88405,"Cargo","MSC MANDRAKI",2016-12-13 11:53:06,"Cargo MSC MANDRAKI",120,265535,NA,NA
55.72787,20.85677,"Cargo","MSC MANDRAKI",2016-12-13 11:51:06,"Cargo MSC MANDRAKI",120,265536,1710.25736207076,120
55.74283,20.81294,"Cargo","MSC MATILDE",2016-12-19 02:55:05,"Cargo MSC MATILDE",122,266188,NA,NA
54.65747,18.95536,"Cargo","MSC MATILDE",2016-12-19 01:59:02,"Cargo MSC MATILDE",3363,266189,168883.038235232,3363
57.67819,11.77309,"Cargo","MSC OSCAR",2016-12-14 15:43:05,"Cargo MSC OSCAR",120,267496,NA,NA
57.67958,11.79725,"Cargo","MSC OSCAR",2016-12-14 15:41:05,"Cargo MSC OSCAR",120,267497,1446.26824670219,120
59.89602,30.1267,"Cargo","MSC SABRINA",2016-12-16 23:01:04,"Cargo MSC SABRINA",120,268128,NA,NA
59.88975,30.15704,"Cargo","MSC SABRINA",2016-12-16 22:59:04,"Cargo MSC SABRINA",119,268129,1832.32609829081,120
59.91667,30.02511,"Cargo","MSC SANTHYA",2016-12-20 04:15:03,"Cargo MSC SANTHYA",120,269629,NA,NA
59.91933,30.01209,"Cargo","MSC SANTHYA",2016-12-20 04:13:03,"Cargo MSC SANTHYA",120,269630,784.514045201786,120
54.78098,18.93245,"Cargo","MULTIMAR",2016-12-20 11:07:03,"Cargo MULTIMAR",119,269633,NA,NA
54.78885,18.91414,"Cargo","MULTIMAR",2016-12-20 11:01:02,"Cargo MULTIMAR",361,269634,1465.94293855861,361
54.64939,19.86546,"Cargo","NACC TORONTO",2016-12-13 23:23:03,"Cargo NACC TORONTO",119,269645,NA,NA
54.63306,19.89324,"Cargo","NACC TORONTO",2016-12-13 23:21:03,"Cargo NACC TORONTO",120,269646,2550.91951418396,120
57.93928,11.68787,"Cargo","NAVEN",2016-12-14 19:57:05,"Cargo NAVEN",120,269700,NA,NA
57.95989,11.71741,"Cargo","NAVEN",2016-12-14 19:55:05,"Cargo NAVEN",120,269701,2882.51800558412,120
55.72868,21.05503,"Cargo","NAVI BALTIC",2016-12-15 06:23:06,"Cargo NAVI BALTIC",122,271011,NA,NA
55.72889,21.0307,"Cargo","NAVI BALTIC",2016-12-15 06:21:07,"Cargo NAVI BALTIC",119,271012,1525.31065279894,119
55.70358,21.12755,"Cargo","NBAAR MOON",2016-12-18 21:05:06,"Cargo NBAAR MOON",120,271039,NA,NA
55.70363,21.12763,"Cargo","NBAAR MOON",2016-12-18 21:03:07,"Cargo NBAAR MOON",119,271040,7.49405869421927,119
54.65233,19.85667,"Cargo","NBP CARRIER",2016-12-15 23:43:03,"Cargo NBP CARRIER",120,271049,NA,NA
54.63794,19.88478,"Cargo","NBP CARRIER",2016-12-15 23:41:03,"Cargo NBP CARRIER",120,271050,2417.55548819845,120
57.60668,11.6594,"Cargo","NEWYORKER",2016-12-19 02:07:05,"Cargo NEWYORKER",120,271656,NA,NA
57.60207,11.62982,"Cargo","NEWYORKER",2016-12-19 02:05:05,"Cargo NEWYORKER",120,271657,1837.29920455541,120
59.91663,30.02644,"Cargo","NIKOLAS",2016-12-18 02:19:04,"Cargo NIKOLAS",119,272909,NA,NA
59.92066,30.00638,"Cargo","NIKOLAS",2016-12-18 02:17:04,"Cargo NIKOLAS",119,272910,1205.83742774811,120
54.53049,18.53539,"Cargo","NINA 1",2016-12-20 09:31:07,"Cargo NINA 1",359,272923,NA,NA
54.53569,18.56993,"Cargo","NINA 1",2016-12-20 09:11:07,"Cargo NINA 1",1200,272924,2304.85430548579,1200
59.90729,30.07167,"Cargo","NJORD",2016-12-19 09:51:04,"Cargo NJORD",119,273038,NA,NA
59.90236,30.09618,"Cargo","NJORD",2016-12-19 09:49:06,"Cargo NJORD",117,273039,1474.11115787845,118
59.90061,30.10557,"Cargo","NORDEROOG",2016-12-20 09:31:04,"Cargo NORDEROOG",119,275075,NA,NA
59.88723,30.17037,"Cargo","NORDEROOG",2016-12-20 09:11:04,"Cargo NORDEROOG",1200,275076,3912.88276883273,1200
57.67521,11.70776,"Cargo","NORDIC ACE",2016-12-19 19:07:05,"Cargo NORDIC ACE",119,276324,NA,NA
57.67709,11.73576,"Cargo","NORDIC ACE",2016-12-19 19:05:05,"Cargo NORDIC ACE",120,276325,1679.73212397331,120
59.91153,30.05079,"Cargo","NORDIC HAMBURG",2016-12-17 14:07:04,"Cargo NORDIC HAMBURG",119,277002,NA,NA
59.9152,30.03243,"Cargo","NORDIC HAMBURG",2016-12-17 14:05:04,"Cargo NORDIC HAMBURG",119,277003,1103.03572324703,120
54.63261,19.91726,"Cargo","NORDIC PHILIP",2016-12-19 07:49:03,"Cargo NORDIC PHILIP",119,277777,NA,NA
54.63322,19.89455,"Cargo","NORDIC PHILIP",2016-12-19 07:47:02,"Cargo NORDIC PHILIP",121,277778,1464.85150978237,121
59.90933,30.06114,"Cargo","NOVAYA ZEMLYA",2016-12-15 10:35:04,"Cargo NOVAYA ZEMLYA",120,277820,NA,NA
59.90448,30.08493,"Cargo","NOVAYA ZEMLYA",2016-12-15 10:33:04,"Cargo NOVAYA ZEMLYA",120,277821,1433.43309334706,120
54.78623,18.93298,"Cargo","NURI SONAY",2016-12-17 04:11:01,"Cargo NURI SONAY",121,281348,NA,NA
54.79419,18.91866,"Cargo","NURI SONAY",2016-12-17 04:09:01,"Cargo NURI SONAY",120,281349,1276.69216216942,120
55.7255,21.09081,"Cargo","OCEAN RAINBOW",2016-12-16 15:51:06,"Cargo OCEAN RAINBOW",120,282645,NA,NA
55.72824,21.05654,"Cargo","OCEAN RAINBOW",2016-12-16 15:43:06,"Cargo OCEAN RAINBOW",480,282646,2169.87269856892,480
54.76856,18.99601,"Cargo","OCEAN VOYAGER",2016-12-19 10:21:02,"Cargo OCEAN VOYAGER",119,284260,NA,NA
54.74373,18.99928,"Cargo","OCEAN VOYAGER",2016-12-19 10:13:02,"Cargo OCEAN VOYAGER",480,284261,2772.03321818328,480
54.63303,19.92508,"Cargo","OLGA",2016-12-17 01:09:02,"Cargo OLGA",120,288320,NA,NA
54.64677,20.06415,"Cargo","OLGA",2016-12-17 01:07:03,"Cargo OLGA",119,288321,9088.80157545195,119
59.91593,30.02891,"Cargo","OMSKIY-132",2016-12-18 20:03:04,"Cargo OMSKIY-132",119,288371,NA,NA
59.91209,30.04754,"Cargo","OMSKIY-132",2016-12-18 20:01:04,"Cargo OMSKIY-132",119,288372,1124.08613578729,120
59.91987,30.01001,"Cargo","OMSKIY-134",2016-12-13 23:19:04,"Cargo OMSKIY-134",120,289231,NA,NA
59.9176,30.02091,"Cargo","OMSKIY-134",2016-12-13 23:17:04,"Cargo OMSKIY-134",120,289232,658.588686290525,120
54.67465,18.96738,"Cargo","OMSKIY-140",2016-12-15 21:25:01,"Cargo OMSKIY-140",121,289597,NA,NA
54.66514,18.95891,"Cargo","OMSKIY-140",2016-12-15 21:23:01,"Cargo OMSKIY-140",120,289598,1190.81338040679,120
54.63283,19.91191,"Cargo","OMSKIY-141",2016-12-14 23:33:03,"Cargo OMSKIY-141",119,290695,NA,NA
54.65581,19.84741,"Cargo","OMSKIY-141",2016-12-14 23:31:02,"Cargo OMSKIY-141",121,290696,4879.15141789843,121
59.92119,30.00356,"Cargo","OOCL RAUMA",2016-12-17 10:43:04,"Cargo OOCL RAUMA",NA,290708,NA,NA
59.91715,30.02331,"Cargo","OOCL RAUMA",2016-12-17 10:41:05,"Cargo OOCL RAUMA",118,290709,1190.20355077477,119
59.90803,30.06803,"Cargo","OSTEREMS",2016-12-18 03:35:04,"Cargo OSTEREMS",120,293636,NA,NA
59.9116,30.05038,"Cargo","OSTEREMS",2016-12-18 03:33:04,"Cargo OSTEREMS",119,293637,1062.2152247602,120
55.72864,21.05701,"Cargo","PACIFIC CALM",2016-12-15 12:59:07,"Cargo PACIFIC CALM",119,296832,NA,NA
55.72888,21.04194,"Cargo","PACIFIC CALM",2016-12-15 12:57:06,"Cargo PACIFIC CALM",121,296833,945.044654464926,121
59.89337,30.21968,"Cargo","PACIFIC WINTER",2016-12-16 20:51:04,"Cargo PACIFIC WINTER",119,299416,NA,NA
59.89372,30.21974,"Cargo","PACIFIC WINTER",2016-12-16 20:49:05,"Cargo PACIFIC WINTER",119,299417,39.1056037141513,119
59.89198,30.14679,"Cargo","PAPUA",2016-12-14 18:43:04,"Cargo PAPUA",120,301642,NA,NA
59.88899,30.16134,"Cargo","PAPUA",2016-12-14 18:41:04,"Cargo PAPUA",119,301643,878.059929390789,120
59.9175,30.02117,"Cargo","PAULINE RUSS",2016-12-13 22:17:04,"Cargo PAULINE RUSS",119,302351,NA,NA
59.913,30.0425,"Cargo","PAULINE RUSS",2016-12-13 22:15:04,"Cargo PAULINE RUSS",119,302352,1291.38062495978,120
54.72048,18.99044,"Cargo","PETER PAN",2016-12-19 18:07:02,"Cargo PETER PAN",119,303133,NA,NA
54.76785,18.99642,"Cargo","PETER PAN",2016-12-19 17:57:01,"Cargo PETER PAN",601,303134,5287.18597826406,601
57.64103,11.69722,"Cargo","PETUNIA SEAWAYS",2016-12-17 16:55:05,"Cargo PETUNIA SEAWAYS",120,303146,NA,NA
57.65259,11.72198,"Cargo","PETUNIA SEAWAYS",2016-12-17 16:53:05,"Cargo PETUNIA SEAWAYS",120,303147,1957.43782210047,120
54.78657,18.99969,"Cargo","PHANTOM",2016-12-18 14:37:01,"Cargo PHANTOM",121,304986,NA,NA
59.92157,30.00041,"Cargo","PHANTOM",2016-12-16 10:05:04,"Cargo PHANTOM",189117,304987,871651.093967599,189117
54.67082,19.80477,"Cargo","PHOENIX II",2016-12-20 00:41:02,"Cargo PHOENIX II",120,306956,NA,NA
54.45469,18.99999,"Cargo","PHOENIX II",2016-12-19 19:03:01,"Cargo PHOENIX II",20281,306957,57244.9000906938,20281
57.87129,12.02258,"Cargo","PINTA",2016-12-17 02:51:07,"Cargo PINTA",118,307868,NA,NA
57.8814,12.02976,"Cargo","PINTA",2016-12-17 02:49:07,"Cargo PINTA",118,307869,1203.01744217641,120
59.87857,30.22628,"Cargo","PIRITA",2016-12-14 00:45:04,"Cargo PIRITA",119,308096,NA,NA
59.87837,30.22568,"Cargo","PIRITA",2016-12-14 00:43:04,"Cargo PIRITA",119,308097,40.2388934773966,120
59.90575,30.07908,"Cargo","PITZTAL",2016-12-15 10:09:05,"Cargo PITZTAL",118,308502,NA,NA
59.902,30.09755,"Cargo","PITZTAL",2016-12-15 10:07:04,"Cargo PITZTAL",119,308503,1112.32547916743,121
59.9163,30.26295,"Cargo","PL 2",2016-12-20 06:29:04,"Cargo PL 2",119,309780,NA,NA
59.91913,30.26153,"Cargo","PL 2",2016-12-20 06:27:05,"Cargo PL 2",118,309781,324.845265429166,119
59.90124,30.1017,"Cargo","PLYCA",2016-12-14 21:37:04,"Cargo PLYCA",119,314428,NA,NA
59.89847,30.11561,"Cargo","PLYCA",2016-12-14 21:35:04,"Cargo PLYCA",119,314429,835.549748354641,120
59.92054,30.00686,"Cargo","POLA MUROM",2016-12-13 22:43:04,"Cargo POLA MUROM",NA,314773,NA,NA
59.91764,30.021,"Cargo","POLA MUROM",2016-12-13 22:41:04,"Cargo POLA MUROM",119,314774,852.445787262123,120
59.9132,30.04201,"Cargo","POLA UGLICH",2016-12-19 02:07:05,"Cargo POLA UGLICH",118,316054,NA,NA
59.91687,30.02371,"Cargo","POLA UGLICH",2016-12-19 02:05:04,"Cargo POLA UGLICH",120,316055,1099.87852572029,121
59.89599,30.22679,"Cargo","PORT ALFRED",2016-12-14 00:33:04,"Cargo PORT ALFRED",119,316116,NA,NA
59.89608,30.22709,"Cargo","PORT ALFRED",2016-12-14 00:31:04,"Cargo PORT ALFRED",119,316117,19.5179535188601,120
55.72672,21.08698,"Cargo","PRIMA FORTUNA",2016-12-18 00:51:06,"Cargo PRIMA FORTUNA",119,316569,NA,NA
55.71674,21.11054,"Cargo","PRIMA FORTUNA",2016-12-18 00:43:06,"Cargo PRIMA FORTUNA",480,316570,1848.28737753979,480
57.65028,11.71538,"Cargo","PRIMULA SEAWAYS",2016-12-15 18:17:05,"Cargo PRIMULA SEAWAYS",121,317817,NA,NA
57.63254,11.69205,"Cargo","PRIMULA SEAWAYS",2016-12-15 18:15:07,"Cargo PRIMULA SEAWAYS",118,317818,2414.94735894293,118
59.917,30.0235,"Cargo","PRINCE OF WAVES",2016-12-19 19:23:04,"Cargo PRINCE OF WAVES",119,317828,NA,NA
59.912,30.04717,"Cargo","PRINCE OF WAVES",2016-12-19 19:21:04,"Cargo PRINCE OF WAVES",119,317829,1433.35202340263,120
59.92061,30.00629,"Cargo","PRINCESSE OUI",2016-12-18 21:01:04,"Cargo PRINCESSE OUI",NA,319301,NA,NA
59.91763,30.02091,"Cargo","PRINCESSE OUI",2016-12-18 20:59:04,"Cargo PRINCESSE OUI",119,319302,880.606937388718,120
57.60552,11.60822,"Cargo","PRISCILLA",2016-12-19 19:15:05,"Cargo PRISCILLA",NA,322951,NA,NA
57.60335,11.61722,"Cargo","PRISCILLA",2016-12-19 19:13:05,"Cargo PRISCILLA",120,322952,588.617697101487,120
57.6536,11.7282,"Cargo","RAMONA",2016-12-17 12:07:06,"Cargo RAMONA",119,322971,NA,NA
57.65665,11.74505,"Cargo","RAMONA",2016-12-17 12:05:05,"Cargo RAMONA",121,322972,1059.42317549725,121
59.90487,30.08347,"Cargo","REINBEK",2016-12-13 20:17:05,"Cargo REINBEK",119,323424,NA,NA
59.90187,30.09799,"Cargo","REINBEK",2016-12-13 20:15:05,"Cargo REINBEK",119,323425,876.642437329822,120
55.71651,21.10869,"Cargo","RIG",2016-12-16 13:03:06,"Cargo RIG",120,323815,NA,NA
55.72821,21.06735,"Cargo","RIG",2016-12-16 12:55:06,"Cargo RIG",480,323816,2900.68026014042,480
54.59549,18.87928,"Cargo","RIX STAR",2016-12-14 19:57:02,"Cargo RIX STAR",120,323995,NA,NA
54.61718,18.89862,"Cargo","RIX STAR",2016-12-14 19:55:01,"Cargo RIX STAR",121,323996,2717.49760565119,121
54.40318,18.67552,"Cargo","RMS RAHM",2016-12-14 10:09:07,"Cargo RMS RAHM",115,328370,NA,NA
54.44592,18.64606,"Cargo","RMS RAHM",2016-12-14 02:51:02,"Cargo RMS RAHM",26279,328371,5126.08484243735,26285
54.776,18.98992,"Cargo","ROBIN WIND",2016-12-17 07:43:02,"Cargo ROBIN WIND",120,328596,NA,NA
54.7093,18.99832,"Cargo","ROBIN WIND",2016-12-17 07:17:02,"Cargo ROBIN WIND",1560,328597,7444.6042905225,1560
54.56457,18.85662,"Cargo","ROJAREK NAREE",2016-12-16 16:37:01,"Cargo ROJAREK NAREE",121,331149,NA,NA
54.55322,18.83907,"Cargo","ROJAREK NAREE",2016-12-16 16:35:01,"Cargo ROJAREK NAREE",120,331150,1696.98010976924,120
59.89399,30.1374,"Cargo","ROZTOCZE",2016-12-16 08:37:04,"Cargo ROZTOCZE",120,332926,NA,NA
59.89059,30.1536,"Cargo","ROZTOCZE",2016-12-16 08:35:05,"Cargo ROZTOCZE",118,332927,980.608611222363,119
55.72585,21.09099,"Cargo","RUBYN",2016-12-15 04:25:07,"Cargo RUBYN",120,334222,NA,NA
55.71498,21.11143,"Cargo","RUBYN",2016-12-15 04:17:06,"Cargo RUBYN",481,334223,1762.55536316885,481
54.69956,20.45387,"Cargo","RUSICH-10",2016-12-13 13:49:02,"Cargo RUSICH-10",120,337132,NA,NA
54.69913,20.45422,"Cargo","RUSICH-10",2016-12-13 13:29:02,"Cargo RUSICH-10",1200,337133,52.8980160610167,1200
59.91236,30.0471,"Cargo","RUTH",2016-12-20 01:33:04,"Cargo RUTH",120,337445,NA,NA
59.91788,30.0202,"Cargo","RUTH",2016-12-20 01:29:04,"Cargo RUTH",239,337446,1621.99050296228,240
55.73665,20.8532,"Cargo","SAFFIER",2016-12-15 06:23:06,"Cargo SAFFIER",122,337453,NA,NA
55.73774,20.87151,"Cargo","SAFFIER",2016-12-15 06:21:07,"Cargo SAFFIER",119,337454,1153.91650410961,119
54.96338,20.31154,"Cargo","SAMUR-3",2016-12-18 15:17:03,"Cargo SAMUR-3",120,339102,NA,NA
54.6333,19.89325,"Cargo","SAMUR-3",2016-12-18 15:15:03,"Cargo SAMUR-3",120,339103,45504.0996991743,120
55.7276,21.08277,"Cargo","SAN REMO",2016-12-18 18:19:06,"Cargo SAN REMO",240,339351,NA,NA
55.70337,21.11962,"Cargo","SAN REMO",2016-12-18 18:03:05,"Cargo SAN REMO",961,339352,3551.72896848537,961
54.75603,18.96664,"Cargo","SANDETTIE",2016-12-14 10:09:01,"Cargo SANDETTIE",121,339432,NA,NA
54.40707,18.65818,"Cargo","SANDETTIE",2016-12-14 02:51:02,"Cargo SANDETTIE",26279,339433,43646.5592404995,26279
54.76309,18.99629,"Cargo","SANTA URSULA",2016-12-18 06:05:02,"Cargo SANTA URSULA",120,339894,NA,NA
54.72224,18.99694,"Cargo","SANTA URSULA",2016-12-18 05:55:02,"Cargo SANTA URSULA",600,339895,4547.59301898121,600
59.94093,30.25605,"Cargo","SAT AIS",2016-12-15 15:03:04,"Cargo SAT AIS",240,343098,NA,NA
59.94102,30.25615,"Cargo","SAT AIS",2016-12-15 15:01:04,"Cargo SAT AIS",120,343099,11.4658680632919,120
55.72813,21.0776,"Cargo","SAXUM",2016-12-19 21:19:06,"Cargo SAXUM",120,343228,NA,NA
55.71747,21.10957,"Cargo","SAXUM",2016-12-19 21:09:06,"Cargo SAXUM",600,343229,2329.29383039952,600
59.909,30.06243,"Cargo","SCA TUNADAL",2016-12-19 18:05:04,"Cargo SCA TUNADAL",119,343755,NA,NA
59.90543,30.08021,"Cargo","SCA TUNADAL",2016-12-19 18:03:04,"Cargo SCA TUNADAL",119,343756,1069.01936603979,120
57.6165,11.66683,"Cargo","SCHIEBORG",2016-12-16 04:31:06,"Cargo SCHIEBORG",119,344839,NA,NA
57.61017,11.63217,"Cargo","SCHIEBORG",2016-12-16 04:29:05,"Cargo SCHIEBORG",121,344840,2183.46897404493,121
54.78593,18.92086,"Cargo","SCHUYLER TRADER",2016-12-16 04:05:02,"Cargo SCHUYLER TRADER",120,344846,NA,NA
54.77647,18.9374,"Cargo","SCHUYLER TRADER",2016-12-16 04:03:02,"Cargo SCHUYLER TRADER",120,344847,1495.48511573722,120
59.90843,30.06649,"Cargo","SEAGARD",2016-12-20 01:57:04,"Cargo SEAGARD",119,346791,NA,NA
59.91272,30.04566,"Cargo","SEAGARD",2016-12-20 01:55:04,"Cargo SEAGARD",119,346792,1256.7932090467,120
54.59955,18.88429,"Cargo","SEASTAR ENDURANCE",2016-12-15 15:31:01,"Cargo SEASTAR ENDURANCE",120,350186,NA,NA
54.61761,18.89918,"Cargo","SEASTAR ENDURANCE",2016-12-15 15:29:01,"Cargo SEASTAR ENDURANCE",120,350187,2227.86830234825,120
54.38306,18.66144,"Cargo","SELENE PRAHM",2016-12-15 03:19:02,"Cargo SELENE PRAHM",120,350346,NA,NA
54.37166,18.664,"Cargo","SELENE PRAHM",2016-12-15 03:13:01,"Cargo SELENE PRAHM",361,350347,1279.85104207568,361
59.88634,30.18579,"Cargo","SERDOLIK",2016-12-16 08:37:04,"Cargo SERDOLIK",120,350879,NA,NA
59.88756,30.19779,"Cargo","SERDOLIK",2016-12-16 08:35:05,"Cargo SERDOLIK",118,350880,683.820143203962,119
57.60117,11.60028,"Cargo","SEROJA EMPAT",2016-12-20 03:55:04,"Cargo SEROJA EMPAT",NA,352721,NA,NA
57.60493,11.65567,"Cargo","SEROJA EMPAT",2016-12-20 03:39:05,"Cargo SEROJA EMPAT",959,352722,3330.03339823231,959
59.90506,30.08365,"Cargo","SEVERNAYA ZEMLYA",2016-12-19 03:19:04,"Cargo SEVERNAYA ZEMLYA",119,353795,NA,NA
59.90722,30.07263,"Cargo","SEVERNAYA ZEMLYA",2016-12-19 03:17:04,"Cargo SEVERNAYA ZEMLYA",119,353796,660.436588210351,120
55.15951,20.15566,"Cargo","SILVER FJORD",2016-12-15 21:25:02,"Cargo SILVER FJORD",121,354255,NA,NA
55.72566,20.80205,"Cargo","SILVER FJORD",2016-12-15 17:43:06,"Cargo SILVER FJORD",13316,354256,75085.0779540625,13316
59.90694,30.07326,"Cargo","SILVER PEARL",2016-12-15 15:31:05,"Cargo SILVER PEARL",118,356673,NA,NA
59.91338,30.04178,"Cargo","SILVER PEARL",2016-12-15 15:29:04,"Cargo SILVER PEARL",120,356674,1897.55853612624,121
57.63065,11.69334,"Cargo","SKAGENBANK",2016-12-19 07:49:06,"Cargo SKAGENBANK",119,356953,NA,NA
57.61919,11.68127,"Cargo","SKAGENBANK",2016-12-19 07:47:05,"Cargo SKAGENBANK",121,356954,1464.61053700023,121
57.61417,11.6575,"Cargo","SLINGEBORG",2016-12-18 22:35:05,"Cargo SLINGEBORG",120,356962,NA,NA
57.62883,11.67933,"Cargo","SLINGEBORG",2016-12-18 22:33:04,"Cargo SLINGEBORG",121,356963,2087.2803510367,121
54.35765,18.67402,"Cargo","SM-PRC-107",2016-12-14 20:07:02,"Cargo SM-PRC-107",120,361685,NA,NA
54.35757,18.67409,"Cargo","SM-PRC-107",2016-12-14 20:05:02,"Cargo SM-PRC-107",120,361686,9.99639218032857,120
59.91005,30.05787,"Cargo","SOLONG",2016-12-14 01:47:04,"Cargo SOLONG",120,362459,NA,NA
59.91267,30.04487,"Cargo","SOLONG",2016-12-14 01:45:04,"Cargo SOLONG",120,362460,781.943370952598,120
57.669,11.69333,"Cargo","SOMERSET",2016-12-14 01:17:06,"Cargo SOMERSET",119,362742,NA,NA
57.67833,11.72617,"Cargo","SOMERSET",2016-12-14 01:15:05,"Cargo SOMERSET",121,362743,2213.64531255886,121
54.65482,19.8098,"Cargo","SORMOVSKIY-3055",2016-12-14 10:09:02,"Cargo SORMOVSKIY-3055",121,366103,NA,NA
54.67454,18.99002,"Cargo","SORMOVSKIY-3055",2016-12-14 01:07:01,"Cargo SORMOVSKIY-3055",32521,366104,52825.071028014,32521
59.90585,30.07863,"Cargo","SORMOVSKIY-3056",2016-12-15 08:33:05,"Cargo SORMOVSKIY-3056",118,370134,NA,NA
59.9086,30.0646,"Cargo","SORMOVSKIY-3056",2016-12-15 08:31:04,"Cargo SORMOVSKIY-3056",120,370135,840.804971925142,121
54.6326,19.90259,"Cargo","SORMOVSKIY-3058",2016-12-15 12:33:03,"Cargo SORMOVSKIY-3058",120,370158,NA,NA
54.6664,20.13557,"Cargo","SORMOVSKIY-3058",2016-12-15 12:27:07,"Cargo SORMOVSKIY-3058",356,370159,15470.0448974959,356
54.70193,20.4587,"Cargo","SORMOVSKIY-3068",2016-12-15 17:43:03,"Cargo SORMOVSKIY-3068",120,371563,NA,NA
54.65437,20.11265,"Cargo","SORMOVSKIY-3068",2016-12-14 02:47:02,"Cargo SORMOVSKIY-3068",140161,371564,22892.8716333062,140161
59.90385,30.08839,"Cargo","SORMOVSKIY-53",2016-12-19 16:31:04,"Cargo SORMOVSKIY-53",128,372128,NA,NA
59.9087,30.06449,"Cargo","SORMOVSKIY-53",2016-12-19 16:25:04,"Cargo SORMOVSKIY-53",359,372129,1439.14605203642,360
54.6857,20.2302,"Cargo","SORMOVSKIY 3064",2016-12-16 21:51:03,"Cargo SORMOVSKIY 3064",960,372192,NA,NA
54.68362,20.32903,"Cargo","SORMOVSKIY 3064",2016-12-16 21:49:04,"Cargo SORMOVSKIY 3064",119,372193,6364.03604340431,119
55.72241,21.09879,"Cargo","SPANACO FIDELITY",2016-12-19 23:23:13,"Cargo SPANACO FIDELITY",113,373056,NA,NA
55.71562,21.11,"Cargo","SPANACO FIDELITY",2016-12-19 23:19:14,"Cargo SPANACO FIDELITY",239,373057,1032.16263193324,239
54.69692,18.99504,"Cargo","STAR ISFJORD",2016-12-19 12:01:09,"Cargo STAR ISFJORD",113,373369,NA,NA
54.75713,18.99659,"Cargo","STAR ISFJORD",2016-12-19 11:43:02,"Cargo STAR ISFJORD",1087,373370,6703.28712494404,1087
54.6338,19.936,"Cargo","STEENBANK",2016-12-16 01:45:02,"Cargo STEENBANK",121,373406,NA,NA
54.63259,19.90238,"Cargo","STEENBANK",2016-12-16 01:37:02,"Cargo STEENBANK",480,373407,2170.411155649,480
54.75467,18.84233,"Cargo","STENA FORERUNNER",2016-12-18 15:13:01,"Cargo STENA FORERUNNER",121,373433,NA,NA
54.676,18.94767,"Cargo","STENA FORERUNNER",2016-12-18 15:11:02,"Cargo STENA FORERUNNER",119,373434,11071.3965148314,119
57.71863,11.97329,"Cargo","STOCKHOLM",2016-12-20 05:47:07,"Cargo STOCKHOLM",118,373818,NA,NA
57.71867,11.97328,"Cargo","STOCKHOLM",2016-12-20 05:45:07,"Cargo STOCKHOLM",118,373819,4.49229504334805,120
59.90365,30.0899,"Cargo","STORTEBEKER",2016-12-17 03:51:04,"Cargo STORTEBEKER",120,379639,NA,NA
59.90795,30.06853,"Cargo","STORTEBEKER",2016-12-17 03:49:04,"Cargo STORTEBEKER",119,379640,1285.29462339388,120
55.72252,20.90764,"Cargo","STRANDJA",2016-12-19 03:47:06,"Cargo STRANDJA",120,380527,NA,NA
55.72063,20.89128,"Cargo","STRANDJA",2016-12-19 03:45:06,"Cargo STRANDJA",120,380528,1047.07514539934,120
54.64101,20.02567,"Cargo","STRATEGIC ENCOUNTER",2016-12-16 09:47:02,"Cargo STRATEGIC ENCOUNTER",121,383742,NA,NA
54.63309,19.89434,"Cargo","STRATEGIC ENCOUNTER",2016-12-16 09:45:03,"Cargo STRATEGIC ENCOUNTER",119,383743,8506.95342528543,119
59.89033,30.22363,"Cargo","SUEDEROOG",2016-12-14 10:09:04,"Cargo SUEDEROOG",120,384087,NA,NA
59.87295,30.20375,"Cargo","SUEDEROOG",2016-12-14 02:29:04,"Cargo SUEDEROOG",27599,384088,2230.77114703091,27600
54.63951,20.01301,"Cargo","SVYATITEL ALEKSIY",2016-12-15 12:13:02,"Cargo SVYATITEL ALEKSIY",121,384566,NA,NA
54.64499,20.05175,"Cargo","SVYATITEL ALEKSIY",2016-12-15 12:11:03,"Cargo SVYATITEL ALEKSIY",119,384567,2569.04507919772,119
57.60037,11.79307,"Cargo","SYLVEIA",2016-12-15 13:31:06,"Cargo SYLVEIA",119,388066,NA,NA
57.60033,11.79304,"Cargo","SYLVEIA",2016-12-15 13:29:06,"Cargo SYLVEIA",120,388067,4.79888285643927,120
54.36997,18.66461,"Cargo","TANAIS",2016-12-16 14:23:01,"Cargo TANAIS",121,390005,NA,NA
54.38043,18.66072,"Cargo","TANAIS",2016-12-16 14:19:01,"Cargo TANAIS",240,390006,1191.40759761632,240
57.96387,11.71894,"Cargo","TASMAN",2016-12-16 15:51:05,"Cargo TASMAN",120,390224,NA,NA
57.98169,11.74611,"Cargo","TASMAN",2016-12-16 15:43:05,"Cargo TASMAN",480,390225,2551.05652569267,480
57.61285,11.80496,"Cargo","TENDER1",2016-12-14 10:09:08,"Cargo TENDER1",118,392151,NA,NA
57.64594,11.85902,"Cargo","TENDER1",2016-12-14 02:23:08,"Cargo TENDER1",27957,392152,4893.83934507296,27960
59.90586,30.07837,"Cargo","TERSCHELLING",2016-12-16 05:57:04,"Cargo TERSCHELLING",119,393430,NA,NA
59.91047,30.05565,"Cargo","TERSCHELLING",2016-12-16 05:55:05,"Cargo TERSCHELLING",118,393431,1368.00235265887,119
54.52118,18.77537,"Cargo","THEA MARIEKE",2016-12-16 20:29:07,"Cargo THEA MARIEKE",114,396013,NA,NA
54.53445,18.79455,"Cargo","THEA MARIEKE",2016-12-16 20:27:06,"Cargo THEA MARIEKE",116,396014,1928.03460627701,121
55.72865,21.05033,"Cargo","THOR INTEGRITY",2016-12-19 22:25:06,"Cargo THOR INTEGRITY",120,396115,NA,NA
55.7284,21.0655,"Cargo","THOR INTEGRITY",2016-12-19 22:23:13,"Cargo THOR INTEGRITY",113,396116,951.348327096487,113
57.65178,11.71843,"Cargo","THULELAND",2016-12-14 13:33:06,"Cargo THULELAND",119,400510,NA,NA
57.65663,11.74896,"Cargo","THULELAND",2016-12-14 13:31:05,"Cargo THULELAND",121,400511,1896.79739860662,121
54.56498,18.859,"Cargo","THURKUS",2016-12-16 12:57:02,"Cargo THURKUS",120,401116,NA,NA
54.54402,18.82845,"Cargo","THURKUS",2016-12-16 12:55:01,"Cargo THURKUS",121,401117,3055.12061257243,121
55.71618,20.80508,"Cargo","TIDAN",2016-12-17 04:33:06,"Cargo TIDAN",120,402303,NA,NA
57.60259,11.65599,"Cargo","TIDAN",2016-12-15 10:11:05,"Cargo TIDAN",152521,402304,597284.135666156,152521
54.56521,18.86041,"Cargo","TINA",2016-12-13 15:51:01,"Cargo TINA",121,402515,NA,NA
54.55447,18.84484,"Cargo","TINA",2016-12-13 15:49:01,"Cargo TINA",120,402516,1561.87959913145,120
54.78199,18.99543,"Cargo","TOLLUND",2016-12-17 19:17:01,"Cargo TOLLUND",120,402661,NA,NA
54.66673,19.819,"Cargo","TOLLUND",2016-12-17 16:23:02,"Cargo TOLLUND",10439,402662,54477.9541958991,10439
57.60091,11.68952,"Cargo","TRADER BULK",2016-12-19 03:31:05,"Cargo TRADER BULK",120,403309,NA,NA
57.60003,11.65679,"Cargo","TRADER BULK",2016-12-19 03:19:05,"Cargo TRADER BULK",720,403310,1954.70889975683,720
59.92068,30.0053,"Cargo","TRANSOSPREY",2016-12-18 14:43:03,"Cargo TRANSOSPREY",120,404256,NA,NA
54.72713,18.99946,"Cargo","TRANSOSPREY",2016-12-16 22:13:02,"Cargo TRANSOSPREY",145801,404257,876546.780157695,145801
55.68792,21.13279,"Cargo","TRAVEBERG",2016-12-16 15:53:06,"Cargo TRAVEBERG",120,406539,NA,NA
55.6643,21.14626,"Cargo","TRAVEBERG",2016-12-16 15:43:06,"Cargo TRAVEBERG",600,406540,2761.96535218847,600
59.89521,30.1315,"Cargo","TRICA",2016-12-20 09:31:04,"Cargo TRICA",119,406552,NA,NA
59.88806,30.2011,"Cargo","TRICA",2016-12-20 09:11:04,"Cargo TRICA",1200,406553,3967.26398472632,1200
55.74756,20.84578,"Cargo","TRUE LOVE",2016-12-15 13:27:06,"Cargo TRUE LOVE",121,407095,NA,NA
55.74601,20.86242,"Cargo","TRUE LOVE",2016-12-15 13:25:07,"Cargo TRUE LOVE",119,407096,1056.78241383851,119
54.69624,20.43857,"Cargo","UFA",2016-12-15 09:33:04,"Cargo UFA",119,408516,NA,NA
54.64828,20.07527,"Cargo","UFA",2016-12-14 02:47:02,"Cargo UFA",110762,408517,23987.559512021,110762
55.73171,20.97099,"Cargo","USOLIE",2016-12-14 10:09:06,"Cargo USOLIE",121,408559,NA,NA
55.69459,21.13291,"Cargo","USOLIE",2016-12-14 02:29:06,"Cargo USOLIE",27600,408560,10962.6494918173,27600
59.89277,30.14283,"Cargo","VALENCIA EXPRESS",2016-12-19 14:27:04,"Cargo VALENCIA EXPRESS",119,409592,NA,NA
59.89643,30.12481,"Cargo","VALENCIA EXPRESS",2016-12-19 14:25:04,"Cargo VALENCIA EXPRESS",119,409593,1085.54236807391,120
55.71448,21.11101,"Cargo","VANTAGE WAVE",2016-12-14 10:11:07,"Cargo VANTAGE WAVE",119,411208,NA,NA
55.70213,20.87546,"Cargo","VANTAGE WAVE",2016-12-14 02:29:06,"Cargo VANTAGE WAVE",27721,411209,14837.0729675324,27721
59.91301,30.04302,"Cargo","VARVARA",2016-12-13 11:33:04,"Cargo VARVARA",119,411664,NA,NA
59.91079,30.05415,"Cargo","VARVARA",2016-12-13 11:31:04,"Cargo VARVARA",119,411665,668.498608507527,120
54.58216,18.88781,"Cargo","VASTANVIK",2016-12-20 09:31:02,"Cargo VASTANVIK",119,411702,NA,NA
54.53333,18.81033,"Cargo","VASTANVIK",2016-12-20 09:11:02,"Cargo VASTANVIK",1200,411703,7386.62252989555,1200
55.63885,20.80759,"Cargo","VENTURA",2016-12-17 04:03:05,"Cargo VENTURA",121,414055,NA,NA
55.19872,19.96576,"Cargo","VENTURA",2016-12-17 00:05:03,"Cargo VENTURA",14282,414056,72314.577230593,14282
54.37488,18.65932,"Cargo","VICTORIA",2016-12-16 09:07:02,"Cargo VICTORIA",120,419143,NA,NA
54.37491,18.65989,"Cargo","VICTORIA",2016-12-16 09:05:02,"Cargo VICTORIA",120,419144,37.11010543773,120
55.71801,21.10651,"Cargo","VICTORIABORG",2016-12-20 10:27:06,"Cargo VICTORIABORG",120,421015,NA,NA
55.66924,21.14524,"Cargo","VICTORIABORG",2016-12-20 10:03:06,"Cargo VICTORIABORG",1440,421016,5948.06048746484,1440
57.65609,11.7494,"Cargo","VICTORINE",2016-12-19 17:29:05,"Cargo VICTORINE",120,422073,NA,NA
57.64971,11.71424,"Cargo","VICTORINE",2016-12-19 17:27:05,"Cargo VICTORINE",120,422074,2211.3253448884,120
59.9142,30.03802,"Cargo","VIDFOSS",2016-12-15 10:09:05,"Cargo VIDFOSS",118,422089,NA,NA
59.90969,30.05993,"Cargo","VIDFOSS",2016-12-15 10:07:04,"Cargo VIDFOSS",119,422090,1321.80638501045,121
59.92171,30.00018,"Cargo","VINGAREN",2016-12-18 14:55:04,"Cargo VINGAREN",120,424540,NA,NA
55.75435,20.80184,"Cargo","VINGAREN",2016-12-13 12:47:06,"Cargo VINGAREN",439677,424541,714651.213193134,439678
57.60928,11.66926,"Cargo","VIONA",2016-12-20 01:27:05,"Cargo VIONA",120,424824,NA,NA
57.60448,11.66448,"Cargo","VIONA",2016-12-20 01:25:06,"Cargo VIONA",119,424825,605.618236957879,119
55.73095,21.04599,"Cargo","VITA",2016-12-14 21:39:06,"Cargo VITA",120,424855,NA,NA
55.72998,21.06494,"Cargo","VITA",2016-12-14 21:37:06,"Cargo VITA",120,424856,1192.731736326,120
55.74082,20.80078,"Cargo","VITIM",2016-12-17 15:39:06,"Cargo VITIM",120,427115,NA,NA
54.45097,18.99401,"Cargo","VITIM",2016-12-15 04:43:02,"Cargo VITIM",212164,427116,184002.725352148,212164
59.90486,30.08275,"Cargo","VLADIMIR",2016-12-17 06:39:05,"Cargo VLADIMIR",118,429227,NA,NA
59.90915,30.06179,"Cargo","VLADIMIR",2016-12-17 06:37:04,"Cargo VLADIMIR",121,429228,1263.62379555297,121
57.64769,11.7103,"Cargo","WALTER HAMMANN",2016-12-20 11:11:05,"Cargo WALTER HAMMANN",NA,429234,NA,NA
57.62553,11.68675,"Cargo","WALTER HAMMANN",2016-12-20 10:59:05,"Cargo WALTER HAMMANN",720,429235,2838.05140073341,720
59.91777,30.01982,"Cargo","WES AMELIE",2016-12-17 10:25:05,"Cargo WES AMELIE",119,429239,NA,NA
59.91357,30.04042,"Cargo","WES AMELIE",2016-12-17 10:23:04,"Cargo WES AMELIE",120,429240,1240.95704471617,121
54.77571,18.98727,"Cargo","WES JANINE",2016-12-15 16:53:02,"Cargo WES JANINE",119,429858,NA,NA
54.45587,18.99905,"Cargo","WES JANINE",2016-12-15 15:29:01,"Cargo WES JANINE",5041,429859,35612.522181544,5041
54.69349,18.87828,"Cargo","WIEBKE D",2016-12-15 20:01:01,"Cargo WIEBKE D",121,431537,NA,NA
54.69908,18.86269,"Cargo","WIEBKE D",2016-12-15 19:59:02,"Cargo WIEBKE D",119,431538,1180.30921572339,119
59.89277,30.2269,"Cargo","WILHELM",2016-12-13 12:09:04,"Cargo WILHELM",120,432010,NA,NA
59.89294,30.22716,"Cargo","WILHELM",2016-12-13 12:07:05,"Cargo WILHELM",118,432011,23.8518981407892,119
54.65024,18.92236,"Cargo","WILSON BILBAO",2016-12-14 19:57:02,"Cargo WILSON BILBAO",120,432670,NA,NA
54.67572,18.93328,"Cargo","WILSON BILBAO",2016-12-14 19:55:01,"Cargo WILSON BILBAO",121,432671,2922.26231623795,121
54.68437,18.94872,"Cargo","WILSON HOLLA",2016-12-19 15:03:02,"Cargo WILSON HOLLA",119,433257,NA,NA
54.69785,18.95473,"Cargo","WILSON HOLLA",2016-12-19 15:01:02,"Cargo WILSON HOLLA",120,433258,1549.60925372096,120
55.69126,21.13543,"Cargo","WILSON SKY",2016-12-14 14:43:06,"Cargo WILSON SKY",120,433507,NA,NA
54.67703,18.9902,"Cargo","WILSON SKY",2016-12-13 22:35:02,"Cargo WILSON SKY",58084,433508,177008.334000514,58084
54.698,20.45283,"Cargo","WILSON SUND",2016-12-19 03:29:02,"Cargo WILSON SUND",120,434040,NA,NA
54.69806,20.45276,"Cargo","WILSON SUND",2016-12-19 03:27:03,"Cargo WILSON SUND",119,434041,8.05538183051189,119
54.63191,18.92982,"Cargo","WILSON VOLOS",2016-12-16 22:59:02,"Cargo WILSON VOLOS",119,434405,NA,NA
54.6076,18.91041,"Cargo","WILSON VOLOS",2016-12-16 22:57:02,"Cargo WILSON VOLOS",120,434406,2981.36278212458,120
55.73263,20.95861,"Cargo","WINTER BAY",2016-12-15 15:07:07,"Cargo WINTER BAY",119,435284,NA,NA
55.73163,20.98156,"Cargo","WINTER BAY",2016-12-15 15:01:06,"Cargo WINTER BAY",361,435285,1442.80347264318,361
59.91872,30.01553,"Cargo","WMS GRONINGEN",2016-12-19 20:39:04,"Cargo WMS GRONINGEN",119,435349,NA,NA
59.91378,30.03969,"Cargo","WMS GRONINGEN",2016-12-19 20:37:04,"Cargo WMS GRONINGEN",119,435350,1455.9871150599,120
59.91015,30.05674,"Cargo","WYBELSUM",2016-12-19 15:29:04,"Cargo WYBELSUM",119,436798,NA,NA
59.9141,30.03724,"Cargo","WYBELSUM",2016-12-19 15:27:04,"Cargo WYBELSUM",119,436799,1173.72404075079,120
59.90249,30.09439,"Cargo","X-PRESS ETNA",2016-12-19 15:13:04,"Cargo X-PRESS ETNA",119,437363,NA,NA
59.90613,30.07705,"Cargo","X-PRESS ETNA",2016-12-19 15:11:12,"Cargo X-PRESS ETNA",111,437364,1049.32305953471,112
54.69192,18.95926,"Cargo","YAMAL KRECHET",2016-12-20 10:25:02,"Cargo YAMAL KRECHET",120,437391,NA,NA
54.7202,18.97866,"Cargo","YAMAL KRECHET",2016-12-20 10:17:02,"Cargo YAMAL KRECHET",480,437392,3386.37249340296,480
54.68573,20.22603,"Cargo","ZAMOSKVORECHYE",2016-12-15 15:03:03,"Cargo ZAMOSKVORECHYE",240,437535,NA,NA
54.68554,20.17347,"Cargo","ZAMOSKVORECHYE",2016-12-15 14:51:03,"Cargo ZAMOSKVORECHYE",720,437536,3382.28063944272,720
54.53359,18.53776,"Cargo","ZBASTAR ENDURANCE",2016-12-19 19:27:07,"Cargo ZBASTAR ENDURANCE",119,437753,NA,NA
54.53364,18.5378,"Cargo","ZBASTAR ENDURANCE",2016-12-19 19:25:06,"Cargo ZBASTAR ENDURANCE",121,437754,6.13637835181961,121
55.69824,20.86267,"Cargo","ZEALAND BEATRIX",2016-12-17 00:35:06,"Cargo ZEALAND BEATRIX",121,439991,NA,NA
55.65665,20.86282,"Cargo","ZEALAND BEATRIX",2016-12-17 00:33:06,"Cargo ZEALAND BEATRIX",120,439992,4629.78719542706,120
59.92103,30.00384,"Cargo","ZENIT",2016-12-19 10:51:04,"Cargo ZENIT",119,441853,NA,NA
59.91596,30.02864,"Cargo","ZENIT",2016-12-19 10:49:04,"Cargo ZENIT",120,441854,1494.43344414142,120
59.87498,30.1947,"Cargo","ZHEN ZHU HAI",2016-12-15 12:21:05,"Cargo ZHEN ZHU HAI",119,449428,NA,NA
59.87513,30.19516,"Cargo","ZHEN ZHU HAI",2016-12-15 12:19:05,"Cargo ZHEN ZHU HAI",119,449429,30.6482831054138,120
54.79691,18.4361,"Fishing",".WLA-311",2016-12-14 19:35:07,"Fishing .WLA-311",NA,450665,NA,NA
54.7962,18.42845,"Fishing",".WLA-311",2016-12-14 19:33:07,"Fishing .WLA-311",120,450666,497.249757143724,120
55.7599,20.80213,"Fishing","100",2016-12-19 01:21:06,"Fishing 100",120,451367,NA,NA
55.78035,20.80773,"Fishing","100",2016-12-14 20:59:07,"Fishing 100",361319,451368,2303.3331896194,361319
55.70719,21.11483,"Fishing","169",2016-12-17 18:15:07,"Fishing 169",119,451721,NA,NA
55.72095,21.10062,"Fishing","169",2016-12-17 18:07:06,"Fishing 169",481,451722,1772.09572703346,481
55.75827,20.80489,"Fishing","652",2016-12-18 07:51:06,"Fishing 652",119,453117,NA,NA
55.77225,20.80305,"Fishing","652",2016-12-15 08:31:06,"Fishing 652",256800,453118,1560.50689265251,256800
55.7479,20.80184,"Fishing","694",2016-12-17 23:35:06,"Fishing 694",120,453480,NA,NA
55.77372,20.80183,"Fishing","694",2016-12-14 22:45:09,"Fishing 694",262197,453481,2874.26932052523,262197
55.73271,21.0479,"Fishing","756",2016-12-15 00:09:07,"Fishing 756",119,453749,NA,NA
55.70136,21.11934,"Fishing","756",2016-12-15 00:01:15,"Fishing 756",472,453750,5678.53829639428,472
54.60652,18.88237,"Fishing","AGNESE",2016-12-16 06:59:02,"Fishing AGNESE",120,456801,NA,NA
54.61623,18.89098,"Fishing","AGNESE",2016-12-16 06:57:02,"Fishing AGNESE",120,456802,1215.0993545494,120
57.65135,11.83575,"Fishing","AHLMA",2016-12-20 07:59:07,"Fishing AHLMA",118,456865,NA,NA
57.65745,11.82032,"Fishing","AHLMA",2016-12-20 07:57:07,"Fishing AHLMA",117,456866,1142.65101921236,120
59.86845,30.21742,"Fishing","ALBATROSS",2016-12-20 04:01:11,"Fishing ALBATROSS",112,457068,NA,NA
59.86836,30.21739,"Fishing","ALBATROSS",2016-12-20 03:59:03,"Fishing ALBATROSS",127,457069,10.158043838787,128
57.65069,11.83671,"Fishing","ALVSBORG",2016-12-19 07:13:10,"Fishing ALVSBORG",115,461734,NA,NA
57.64545,11.858,"Fishing","ALVSBORG",2016-12-19 06:27:05,"Fishing ALVSBORG",2761,461735,1395.9413695585,2765
54.79977,18.4426,"Fishing","ANCILLA WLA-68",2016-12-18 03:49:07,"Fishing ANCILLA WLA-68",52199,461763,NA,NA
54.79672,18.4304,"Fishing","ANCILLA WLA-68",2016-12-18 03:47:06,"Fishing ANCILLA WLA-68",121,461764,853.338425481478,121
55.70748,20.80876,"Fishing","ATLANT",2016-12-16 22:45:06,"Fishing ATLANT",121,462117,NA,NA
55.77094,20.80019,"Fishing","ATLANT",2016-12-15 00:07:06,"Fishing ATLANT",167880,462118,7084.72089650275,167880
54.63615,19.96907,"Fishing","ATLANTIDA",2016-12-14 23:33:03,"Fishing ATLANTIDA",119,462554,NA,NA
54.63342,19.8941,"Fishing","ATLANTIDA",2016-12-14 23:31:02,"Fishing ATLANTIDA",121,462555,4839.88129107305,121
54.70739,18.99247,"Fishing","BALTICA",2016-12-16 02:19:01,"Fishing BALTICA",121,464179,NA,NA
54.42768,18.99997,"Fishing","BALTICA",2016-12-15 08:59:02,"Fishing BALTICA",62399,464180,31140.9365592895,62399
57.67314,11.62985,"Fishing","BISCAYA GG34",2016-12-20 08:25:05,"Fishing BISCAYA GG34",128,465351,NA,NA
57.66939,11.62202,"Fishing","BISCAYA GG34",2016-12-20 08:23:05,"Fishing BISCAYA GG34",120,465352,625.73003022638,120
54.51999,18.77276,"Fishing","BOOTES",2016-12-19 00:01:38,"Fishing BOOTES",84,466380,NA,NA
54.53127,18.79001,"Fishing","BOOTES",2016-12-18 23:59:06,"Fishing BOOTES",147,466381,1678.87867122733,152
54.37277,18.66246,"Fishing","BORIS SYROMYATNIKOV",2016-12-18 08:23:02,"Fishing BORIS SYROMYATNIKOV",120,467296,NA,NA
54.37305,18.66233,"Fishing","BORIS SYROMYATNIKOV",2016-12-18 08:21:02,"Fishing BORIS SYROMYATNIKOV",120,467297,32.2892579434402,120
54.70523,20.48743,"Fishing","BRATYA STOYANOVY",2016-12-16 02:43:03,"Fishing BRATYA STOYANOVY",119,469967,NA,NA
54.7051,20.48718,"Fishing","BRATYA STOYANOVY",2016-12-16 01:51:03,"Fishing BRATYA STOYANOVY",3120,469968,21.63286032673,3120
54.79712,18.42093,"Fishing","CHRISTINA MICHELLE",2016-12-13 23:15:07,"Fishing CHRISTINA MICHELLE",119,470473,NA,NA
54.79703,18.43237,"Fishing","CHRISTINA MICHELLE",2016-12-13 23:11:07,"Fishing CHRISTINA MICHELLE",240,470474,734.20514089996,240
57.603,11.62517,"Fishing","CLIPPERTON",2016-12-14 16:27:06,"Fishing CLIPPERTON",120,470505,NA,NA
57.605,11.61267,"Fishing","CLIPPERTON",2016-12-14 16:25:05,"Fishing CLIPPERTON",121,470506,778.051754588769,121
57.6004,11.7906,"Fishing","CLIPPFJORD",2016-12-19 07:33:06,"Fishing CLIPPFJORD",119,471113,NA,NA
57.60124,11.79403,"Fishing","CLIPPFJORD",2016-12-19 07:31:05,"Fishing CLIPPFJORD",121,471114,224.944500546456,121
57.67466,11.66486,"Fishing","DANAFJORD",2016-12-17 07:39:06,"Fishing DANAFJORD",119,476444,NA,NA
57.67349,11.66452,"Fishing","DANAFJORD",2016-12-17 07:33:05,"Fishing DANAFJORD",361,476445,131.806922047215,361
54.79982,18.44383,"Fishing","DAR-10",2016-12-13 22:53:07,"Fishing DAR-10",120,478290,NA,NA
54.79816,18.81418,"Fishing","DAR-10",2016-12-13 16:47:02,"Fishing DAR-10",21965,478291,23765.9597052207,21965
55.87436,20.80899,"Fishing","DARIUS",2016-12-16 06:25:08,"Fishing DARIUS",119,478812,NA,NA
55.62143,20.80016,"Fishing","DARIUS",2016-12-15 10:43:07,"Fishing DARIUS",70921,478813,28161.4735335019,70921
54.79985,18.44069,"Fishing","DZI-92 ATILIUS",2016-12-20 04:11:13,"Fishing DZI-92 ATILIUS",NA,478886,NA,NA
54.79614,18.42568,"Fishing","DZI-92 ATILIUS",2016-12-20 04:09:07,"Fishing DZI-92 ATILIUS",126,478887,1048.01811796166,126
54.79833,18.477,"Fishing","DZI 85",2016-12-18 19:19:06,"Fishing DZI 85",121,479295,NA,NA
54.79667,18.42983,"Fishing","DZI 85",2016-12-18 03:41:07,"Fishing DZI 85",56279,479296,3032.63412374827,56279
57.77259,11.62051,"Fishing","ENSKAR",2016-12-20 09:31:05,"Fishing ENSKAR",119,480045,NA,NA
57.72721,11.66791,"Fishing","ENSKAR",2016-12-20 09:11:05,"Fishing ENSKAR",1200,480046,5783.36635935129,1200
57.74771,11.61491,"Fishing","EROS AV HONO",2016-12-14 16:47:06,"Fishing EROS AV HONO",119,482264,NA,NA
57.68261,11.64932,"Fishing","EROS AV HONO",2016-12-14 00:07:06,"Fishing EROS AV HONO",60000,482265,7530.17801066266,60000
54.79632,18.41446,"Fishing","FENIKSS",2016-12-19 16:51:06,"Fishing FENIKSS",2521,482341,NA,NA
54.78333,18.4,"Fishing","FENIKSS",2016-12-19 15:33:07,"Fishing FENIKSS",4679,482342,1718.25817983135,4679
54.6411,18.87042,"Fishing","FRANEK ZUBRZYCKI",2016-12-15 15:21:02,"Fishing FRANEK ZUBRZYCKI",120,482424,NA,NA
54.63113,18.87422,"Fishing","FRANEK ZUBRZYCKI",2016-12-15 15:19:01,"Fishing FRANEK ZUBRZYCKI",121,482425,1136.53814122652,121
57.60175,11.60523,"Fishing","GANTHI",2016-12-19 16:17:05,"Fishing GANTHI",119,483383,NA,NA
57.60079,11.79128,"Fishing","GANTHI",2016-12-19 05:27:05,"Fishing GANTHI",39000,483384,11097.6275394549,39000
54.79977,18.83827,"Fishing","GDA-18",2016-12-15 13:23:02,"Fishing GDA-18",120,485660,NA,NA
54.79884,18.76773,"Fishing","GDA-18",2016-12-15 08:49:07,"Fishing GDA-18",16435,485661,4527.68282568564,16435
54.41359,18.99597,"Fishing","GDA-20",2016-12-16 19:01:01,"Fishing GDA-20",121,487703,NA,NA
54.67441,18.99993,"Fishing","GDA-20",2016-12-15 07:29:02,"Fishing GDA-20",127919,487704,29035.4756168895,127919
57.90454,11.60112,"Fishing","GG 38 TOVEN",2016-12-17 09:31:04,"Fishing GG 38 TOVEN",121,488615,NA,NA
57.9156,11.60165,"Fishing","GG 38 TOVEN",2016-12-17 08:11:05,"Fishing GG 38 TOVEN",4799,488616,1231.59246891169,4799
57.66545,11.61814,"Fishing","GG 391 ELISABETH",2016-12-15 06:31:05,"Fishing GG 391 ELISABETH",120,488646,NA,NA
57.67155,11.62779,"Fishing","GG 391 ELISABETH",2016-12-15 06:29:05,"Fishing GG 391 ELISABETH",120,488647,889.48211504707,120
57.64779,11.82975,"Fishing","GG 668 SILVER",2016-12-16 15:51:08,"Fishing GG 668 SILVER",117,491176,NA,NA
57.62911,11.82257,"Fishing","GG 668 SILVER",2016-12-16 15:43:07,"Fishing GG 668 SILVER",478,491177,2123.00112922783,481
57.63206,11.82187,"Fishing","GG 690 VINGASAND",2016-12-19 10:37:07,"Fishing GG 690 VINGASAND",118,493321,NA,NA
57.62533,11.82135,"Fishing","GG 690 VINGASAND",2016-12-19 10:35:08,"Fishing GG 690 VINGASAND",116,493322,749.820954823311,119
57.71507,11.60402,"Fishing","GG102 MAUDAN",2016-12-14 15:23:05,"Fishing GG102 MAUDAN",120,498707,NA,NA
57.69856,11.64054,"Fishing","GG102 MAUDAN",2016-12-14 02:29:05,"Fishing GG102 MAUDAN",46440,498708,2845.19715785046,46440
57.64334,11.83613,"Fishing","GG1206 DANO",2016-12-17 22:19:08,"Fishing GG1206 DANO",117,500839,NA,NA
57.63395,11.82328,"Fishing","GG1206 DANO",2016-12-17 22:17:07,"Fishing GG1206 DANO",118,500840,1295.71171339276,121
57.77292,11.61625,"Fishing","GG292 MARTINA",2016-12-15 23:49:05,"Fishing GG292 MARTINA",120,506954,NA,NA
57.77287,11.61638,"Fishing","GG292 MARTINA",2016-12-15 23:47:06,"Fishing GG292 MARTINA",119,506955,9.51510608180154,119
57.748,11.60948,"Fishing","GG32 TRISTAN",2016-12-19 18:05:05,"Fishing GG32 TRISTAN",120,508668,NA,NA
57.7686,11.60609,"Fishing","GG32 TRISTAN",2016-12-19 02:57:06,"Fishing GG32 TRISTAN",54479,508669,2302.00204135595,54479
57.73392,11.67183,"Fishing","GG43 ANNA",2016-12-18 11:33:05,"Fishing GG43 ANNA",120,509037,NA,NA
57.73304,11.67202,"Fishing","GG43 ANNA",2016-12-13 23:51:06,"Fishing GG43 ANNA",387719,509038,98.6097600998439,387719
57.6271,11.76748,"Fishing","GG75 MANILL",2016-12-15 13:57:06,"Fishing GG75 MANILL",120,510232,NA,NA
57.62975,11.78354,"Fishing","GG75 MANILL",2016-12-15 13:55:05,"Fishing GG75 MANILL",121,510233,1001.62357148294,121
57.92948,11.60151,"Fishing","GG976 SVANFORS",2016-12-19 17:51:04,"Fishing GG976 SVANFORS",121,510848,NA,NA
57.93022,11.60012,"Fishing","GG976 SVANFORS",2016-12-19 17:49:05,"Fishing GG976 SVANFORS",119,510849,116.342927140584,119
57.71513,11.95762,"Fishing","GINNETON",2016-12-15 21:59:05,"Fishing GINNETON",121,516105,NA,NA
57.71497,11.95756,"Fishing","GINNETON",2016-12-15 21:57:08,"Fishing GINNETON",117,516106,18.1648928817207,117
57.60073,11.66888,"Fishing","GLITTFORS",2016-12-19 15:23:05,"Fishing GLITTFORS",120,517971,NA,NA
57.74045,11.60468,"Fishing","GLITTFORS",2016-12-19 04:25:06,"Fishing GLITTFORS",39479,517972,16016.2585622274,39479
57.70826,11.6679,"Fishing","GOTTSKAR",2016-12-19 21:43:05,"Fishing GOTTSKAR",128,519143,NA,NA
57.71786,11.66545,"Fishing","GOTTSKAR",2016-12-19 21:41:05,"Fishing GOTTSKAR",120,519144,1078.55128934993,120
54.79534,18.70248,"Fishing","HEL-102",2016-12-16 20:23:07,"Fishing HEL-102",115,522386,NA,NA
54.79677,18.76717,"Fishing","HEL-102",2016-12-14 23:57:08,"Fishing HEL-102",159954,522387,4154.49363972726,159959
54.68947,18.77327,"Fishing","HEL-103",2016-12-16 05:59:07,"Fishing HEL-103",120,523011,NA,NA
54.79896,18.58353,"Fishing","HEL-103",2016-12-15 20:07:07,"Fishing HEL-103",35515,523012,17239.5591961837,35520
54.79767,18.85563,"Fishing","HEL-111",2016-12-19 03:45:01,"Fishing HEL-111",121,524329,NA,NA
54.79856,18.73015,"Fishing","HEL-111",2016-12-18 06:13:08,"Fishing HEL-111",77513,524330,8052.80362626917,77513
54.52021,18.54748,"Fishing","HEL-125",2016-12-16 02:31:07,"Fishing HEL-125",120,528651,NA,NA
54.52187,18.55046,"Fishing","HEL-125",2016-12-16 02:29:07,"Fishing HEL-125",120,528652,266.868119317815,120
54.54118,18.98796,"Fishing","HEL-150",2016-12-19 16:07:02,"Fishing HEL-150",120,529688,NA,NA
54.43809,18.99997,"Fishing","HEL-150",2016-12-19 10:55:02,"Fishing HEL-150",18720,529689,11502.1710222594,18720
54.79939,18.81003,"Fishing","HEL-152",2016-12-19 05:51:02,"Fishing HEL-152",119,531824,NA,NA
54.79922,18.70689,"Fishing","HEL-152",2016-12-18 10:03:07,"Fishing HEL-152",71275,531825,6618.44345112368,71275
54.79663,18.42929,"Fishing","HEL-30",2016-12-16 16:39:07,"Fishing HEL-30",120,533867,NA,NA
54.79971,18.80706,"Fishing","HEL-30",2016-12-15 07:33:02,"Fishing HEL-30",119165,533868,24244.2954726689,119165
54.62632,18.99098,"Fishing","HEL-4",2016-12-18 14:15:01,"Fishing HEL-4",121,534195,NA,NA
54.74201,18.99223,"Fishing","HEL-4",2016-12-16 14:31:01,"Fishing HEL-4",171840,534196,12878.8031021116,171840
54.73862,18.97788,"Fishing","HEL-6",2016-12-17 06:09:01,"Fishing HEL-6",121,535733,NA,NA
54.74726,18.98651,"Fishing","HEL-6",2016-12-17 06:07:02,"Fishing HEL-6",119,535734,1110.22009787056,119
54.79933,18.65145,"Fishing","HEL 112",2016-12-16 12:09:08,"Fishing HEL 112",114,536281,NA,NA
54.79729,18.80079,"Fishing","HEL 112",2016-12-15 00:05:01,"Fishing HEL 112",129841,536282,9585.96096300218,129847
54.79923,18.95095,"Fishing","HEL 23",2016-12-17 04:31:02,"Fishing HEL 23",119,537900,NA,NA
54.79855,18.87031,"Fishing","HEL 23",2016-12-15 12:49:02,"Fishing HEL 23",142920,537901,5175.21522969529,142920
54.59192,18.9911,"Fishing","HEL 95",2016-12-15 15:43:02,"Fishing HEL 95",120,538933,NA,NA
54.63875,18.99859,"Fishing","HEL 95",2016-12-15 10:41:02,"Fishing HEL 95",18120,538934,5235.40197182653,18120
57.69016,11.89695,"Fishing","INGUN",2016-12-15 06:17:09,"Fishing INGUN",116,541964,NA,NA
57.69784,11.915,"Fishing","INGUN",2016-12-15 06:15:08,"Fishing INGUN",118,541965,1372.62123507516,121
54.56837,18.99592,"Fishing","JAS-12",2016-12-15 15:11:02,"Fishing JAS-12",120,542615,NA,NA
54.63068,18.99728,"Fishing","JAS-12",2016-12-15 10:27:02,"Fishing JAS-12",17040,542616,6936.87188328414,17040
54.64897,18.9963,"Fishing","JAS-64",2016-12-17 15:37:02,"Fishing JAS-64",119,544695,NA,NA
54.51767,18.99464,"Fishing","JAS-64",2016-12-17 07:35:01,"Fishing JAS-64",28921,544696,14616.6414427314,28921
54.48427,18.93163,"Fishing","JAS-74",2016-12-19 07:21:02,"Fishing JAS-74",120,546269,NA,NA
54.69625,18.67479,"Fishing","JAS-74",2016-12-17 20:01:07,"Fishing JAS-74",127195,546270,28831.9987875278,127195
54.62317,18.86956,"Fishing","JAS-79",2016-12-16 05:23:02,"Fishing JAS-79",120,549777,NA,NA
54.69469,18.67381,"Fishing","JAS-79",2016-12-16 05:21:07,"Fishing JAS-79",115,549778,14908.5643431046,115
54.64479,18.99526,"Fishing","JAS-80",2016-12-15 15:21:02,"Fishing JAS-80",120,551217,NA,NA
54.69943,18.99941,"Fishing","JAS-80",2016-12-15 08:27:02,"Fishing JAS-80",24840,551218,6088.36046098256,24840
54.58678,18.99541,"Fishing","JAS 102",2016-12-17 15:45:01,"Fishing JAS 102",120,551499,NA,NA
54.56517,18.99999,"Fishing","JAS 102",2016-12-17 06:17:02,"Fishing JAS 102",34079,551500,2423.69755889025,34079
54.79908,18.98393,"Fishing","JAS 31",2016-12-17 15:37:02,"Fishing JAS 31",119,553256,NA,NA
54.79669,18.92915,"Fishing","JAS 31",2016-12-16 00:49:01,"Fishing JAS 31",139681,553257,3525.36885070893,139681
54.69555,18.67388,"Fishing","JAS 39",2016-12-19 04:23:07,"Fishing JAS 39",115,554338,NA,NA
54.60051,18.80351,"Fishing","JAS 39",2016-12-17 14:37:02,"Fishing JAS 39",135960,554339,13477.5373546652,135965
54.50483,18.98656,"Fishing","JAS 51",2016-12-19 12:47:01,"Fishing JAS 51",120,554998,NA,NA
54.42486,18.99862,"Fishing","JAS 51",2016-12-19 07:53:02,"Fishing JAS 51",17639,554999,8936.34928542838,17639
54.61336,18.74677,"Fishing","JAS 61",2016-12-15 15:31:08,"Fishing JAS 61",113,556400,NA,NA
54.60688,18.76464,"Fishing","JAS 61",2016-12-15 15:29:06,"Fishing JAS 61",115,556401,1359.26503628368,122
54.79561,18.84209,"Fishing","JAS 76",2016-12-16 16:21:02,"Fishing JAS 76",120,558520,NA,NA
54.79682,18.69658,"Fishing","JAS 76",2016-12-15 08:05:08,"Fishing JAS 76",116154,558521,9338.95190144927,116154
54.58949,18.81434,"Fishing","JAS 77",2016-12-20 04:05:02,"Fishing JAS 77",120,559639,NA,NA
54.69597,18.67434,"Fishing","JAS 77",2016-12-17 20:25:07,"Fishing JAS 77",200395,559640,14894.0658620755,200395
54.56546,18.99991,"Fishing","JAS 78",2016-12-19 13:29:01,"Fishing JAS 78",121,560916,NA,NA
54.4543,18.99326,"Fishing","JAS 78",2016-12-19 08:27:01,"Fishing JAS 78",18120,560917,12381.7356847382,18120
54.7968,18.42252,"Fishing","JURMALA",2016-12-18 19:45:08,"Fishing JURMALA",118,563910,NA,NA
54.7968,18.43028,"Fishing","JURMALA",2016-12-18 19:43:07,"Fishing JURMALA",121,563911,497.98428169153,121
54.54381,18.6805,"Fishing","KAPER-2 SG-312",2016-12-20 11:07:03,"Fishing KAPER-2 SG-312",119,563916,NA,NA
54.54259,18.65607,"Fishing","KAPER-2 SG-312",2016-12-20 11:01:02,"Fishing KAPER-2 SG-312",361,563917,1583.40731380598,361
54.53154,18.70719,"Fishing","KAPITAN GERASHCHENKO",2016-12-18 09:55:07,"Fishing KAPITAN GERASHCHENKO",115,564840,NA,NA
54.53149,18.68513,"Fishing","KAPITAN GERASHCHENKO",2016-12-18 09:53:07,"Fishing KAPITAN GERASHCHENKO",115,564841,1424.94786640224,120
54.37406,18.66191,"Fishing","KAPITAN KRAVCHENKO",2016-12-14 00:41:01,"Fishing KAPITAN KRAVCHENKO",121,570670,NA,NA
54.37393,18.66181,"Fishing","KAPITAN KRAVCHENKO",2016-12-14 00:39:02,"Fishing KAPITAN KRAVCHENKO",119,570671,15.8578390117527,119
57.68848,11.60009,"Fishing","KLONDYKE",2016-12-14 10:29:05,"Fishing KLONDYKE",360,575034,NA,NA
57.69845,11.64067,"Fishing","KLONDYKE",2016-12-14 02:29:05,"Fishing KLONDYKE",28800,575035,2657.17363336754,28800
54.79787,18.43168,"Fishing","KOL-143",2016-12-17 17:41:07,"Fishing KOL-143",119,575480,NA,NA
54.7965,18.41905,"Fishing","KOL-143",2016-12-14 11:23:07,"Fishing KOL-143",281880,575481,824.723697163906,281880
54.79731,18.42032,"Fishing","KOL-148",2016-12-18 00:27:07,"Fishing KOL-148",121,575843,NA,NA
54.79916,18.44166,"Fishing","KOL-148",2016-12-15 02:33:07,"Fishing KOL-148",251640,575844,1384.80699383757,251640
54.79809,18.42753,"Fishing","KPT.WISNIEWSKI",2016-12-17 06:17:08,"Fishing KPT.WISNIEWSKI",89519,575852,NA,NA
54.79715,18.42188,"Fishing","KPT.WISNIEWSKI",2016-12-17 06:15:07,"Fishing KPT.WISNIEWSKI",121,575853,377.369343971791,121
57.60241,11.81972,"Fishing","KRISTIN",2016-12-20 05:31:08,"Fishing KRISTIN",117,575930,NA,NA
57.60079,11.64452,"Fishing","KRISTIN",2016-12-16 11:15:06,"Fishing KRISTIN",324960,575931,10451.4168453557,324962
54.79743,18.43549,"Fishing","KRISTINA",2016-12-20 01:27:06,"Fishing KRISTINA",121,575937,NA,NA
54.79707,18.4221,"Fishing","KRISTINA",2016-12-20 01:25:07,"Fishing KRISTINA",119,575938,860.204022684344,119
54.37183,18.663,"Fishing","KURSHSKAYA KOSA",2016-12-20 05:59:02,"Fishing KURSHSKAYA KOSA",120,576615,NA,NA
54.3715,18.66283,"Fishing","KURSHSKAYA KOSA",2016-12-20 05:49:02,"Fishing KURSHSKAYA KOSA",600,576616,38.3538527505322,600
54.63484,18.99275,"Fishing","KUZ-42",2016-12-18 13:07:02,"Fishing KUZ-42",120,578541,NA,NA
54.60289,18.80058,"Fishing","KUZ-42",2016-12-17 11:47:02,"Fishing KUZ-42",91200,578542,12886.9110616228,91200
57.73225,11.67257,"Fishing","LAGUN",2016-12-14 00:29:06,"Fishing LAGUN",119,583640,NA,NA
57.73215,11.67255,"Fishing","LAGUN",2016-12-14 00:27:06,"Fishing LAGUN",120,583641,11.1952268861234,120
55.68113,20.80552,"Fishing","LBB-1010",2016-12-17 22:01:06,"Fishing LBB-1010",120,584381,NA,NA
55.77594,20.80774,"Fishing","LBB-1010",2016-12-14 23:11:06,"Fishing LBB-1010",255000,584382,10555.1183393832,255000
55.67906,21.1461,"Fishing","LBB-6931",2016-12-20 08:35:14,"Fishing LBB-6931",112,584464,NA,NA
55.67897,21.14639,"Fishing","LBB-6931",2016-12-20 08:33:05,"Fishing LBB-6931",129,584465,20.7770050593172,129
55.73877,20.80297,"Fishing","LBB 1032",2016-12-17 19:21:06,"Fishing LBB 1032",120,584580,NA,NA
55.75491,20.80759,"Fishing","LBB 1032",2016-12-15 04:29:07,"Fishing LBB 1032",226319,584581,1819.86607247252,226319
55.72517,21.08895,"Fishing","LBB 1044",2016-12-14 22:57:06,"Fishing LBB 1044",121,584766,NA,NA
55.7087,21.11383,"Fishing","LBB 1044",2016-12-14 22:55:06,"Fishing LBB 1044",120,584767,2407.34869929974,120
55.71296,20.80702,"Fishing","LBB 1066",2016-12-17 00:09:06,"Fishing LBB 1066",121,584918,NA,NA
55.77367,20.80852,"Fishing","LBB 1066",2016-12-14 22:03:07,"Fishing LBB 1066",180359,584919,6758.8598781734,180359
55.71531,20.80318,"Fishing","LBB 1094",2016-12-17 07:53:06,"Fishing LBB 1094",120,585085,NA,NA
55.76964,20.80727,"Fishing","LBB 1094",2016-12-15 01:01:07,"Fishing LBB 1094",197519,585086,6053.41589112762,197519
55.75541,20.85447,"Fishing","LBB 1107",2016-12-19 21:49:14,"Fishing LBB 1107",112,585151,NA,NA
55.75286,20.87562,"Fishing","LBB 1107",2016-12-19 21:47:05,"Fishing LBB 1107",129,585152,1354.99916230089,129
55.72502,21.09095,"Fishing","LBB 1113",2016-12-14 23:59:06,"Fishing LBB 1113",129,585516,NA,NA
55.71549,21.10774,"Fishing","LBB 1113",2016-12-14 23:53:06,"Fishing LBB 1113",360,585517,1494.54466925448,360
54.75195,18.63059,"Fishing","LEB-7",2016-12-19 12:59:06,"Fishing LEB-7",116,586118,NA,NA
54.74087,18.6593,"Fishing","LEB-7",2016-12-19 12:55:06,"Fishing LEB-7",236,586119,2219.07138812521,240
54.37295,18.66258,"Fishing","LIRA",2016-12-14 21:07:02,"Fishing LIRA",119,588156,NA,NA
54.37352,18.66222,"Fishing","LIRA",2016-12-14 21:05:02,"Fishing LIRA",120,588157,67.6099367810786,120
57.92972,11.60295,"Fishing","LIZ",2016-12-18 14:39:06,"Fishing LIZ",119,590028,NA,NA
57.92967,11.60318,"Fishing","LIZ",2016-12-18 14:37:05,"Fishing LIZ",121,590029,14.6897276706487,121
57.68252,11.64905,"Fishing","MARINA",2016-12-15 00:05:05,"Fishing MARINA",120,597194,NA,NA
57.68264,11.64908,"Fishing","MARINA",2016-12-15 00:03:05,"Fishing MARINA",120,597195,13.477120432862,120
57.68228,11.64755,"Fishing","MARINO",2016-12-19 19:23:04,"Fishing MARINO",121,598358,NA,NA
57.65689,11.60139,"Fishing","MARINO",2016-12-19 04:27:05,"Fishing MARINO",53759,598359,3942.14205248547,53759
54.79665,18.42989,"Fishing","MIKADON",2016-12-14 18:17:07,"Fishing MIKADON",121,602265,NA,NA
54.7972,18.42006,"Fishing","MIKADON",2016-12-14 18:13:08,"Fishing MIKADON",239,602266,633.78515572491,239
57.66337,11.89192,"Fishing","NAUTIC CENTER DEMO",2016-12-18 12:23:08,"Fishing NAUTIC CENTER DEMO",118,603895,NA,NA
57.6634,11.89193,"Fishing","NAUTIC CENTER DEMO",2016-12-18 12:21:08,"Fishing NAUTIC CENTER DEMO",117,603896,3.39225210336816,120
54.79718,18.43477,"Fishing","NAUTILUS",2016-12-19 19:51:07,"Fishing NAUTILUS",NA,607282,NA,NA
54.79576,18.42532,"Fishing","NAUTILUS",2016-12-19 19:49:07,"Fishing NAUTILUS",120,607283,626.705018462377,120
55.72448,21.096,"Fishing","NIKOLAY SOLODCHUK",2016-12-19 22:49:22,"Fishing NIKOLAY SOLODCHUK",103,607671,NA,NA
55.7168,21.10915,"Fishing","NIKOLAY SOLODCHUK",2016-12-19 22:43:06,"Fishing NIKOLAY SOLODCHUK",376,607672,1187.72187830126,376
54.70451,20.48368,"Fishing","NIVENSKOYE",2016-12-14 19:13:03,"Fishing NIVENSKOYE",120,609423,NA,NA
54.70477,20.48366,"Fishing","NIVENSKOYE",2016-12-14 19:11:03,"Fishing NIVENSKOYE",120,609424,28.9716406093407,120
54.52441,18.62692,"Fishing","OCEANOGRAF",2016-12-16 20:29:07,"Fishing OCEANOGRAF",114,612032,NA,NA
54.52055,18.6516,"Fishing","OCEANOGRAF",2016-12-16 20:27:06,"Fishing OCEANOGRAF",116,612033,1651.40764773775,121
54.623,18.84261,"Fishing","ORKA WLA-139",2016-12-15 15:21:02,"Fishing ORKA WLA-139",120,613013,NA,NA
